{
"type": "FeatureCollection",
"name": "gis_osm_places_free_1",
"crs": { "type": "name", "properties": { "name": "urn:ogc:def:crs:OGC:1.3:CRS84" } },
"features": [
{ "type": "Feature", "properties": { "osm_id": "32013127", "code": 1005, "fclass": "national_capital", "population": 3871335, "name": "평양시" }, "geometry": { "type": "Point", "coordinates": [ 125.7473609, 39.0167979 ] } },
{ "type": "Feature", "properties": { "osm_id": "32539072", "code": 1001, "fclass": "city", "population": 983660, "name": "남포시" }, "geometry": { "type": "Point", "coordinates": [ 125.4115285, 38.7367448 ] } },
{ "type": "Feature", "properties": { "osm_id": "33259203", "code": 1001, "fclass": "city", "population": 329207, "name": "원산시" }, "geometry": { "type": "Point", "coordinates": [ 127.4284243, 39.1725946 ] } },
{ "type": "Feature", "properties": { "osm_id": "244078242", "code": 1001, "fclass": "city", "population": 2188436, "name": "丹东市" }, "geometry": { "type": "Point", "coordinates": [ 124.3821748, 40.1237658 ] } },
{ "type": "Feature", "properties": { "osm_id": "244084978", "code": 1001, "fclass": "city", "population": 121616, "name": "临江市" }, "geometry": { "type": "Point", "coordinates": [ 126.9128334, 41.8092486 ] } },
{ "type": "Feature", "properties": { "osm_id": "256594216", "code": 1001, "fclass": "city", "population": 307764, "name": "사리원시" }, "geometry": { "type": "Point", "coordinates": [ 125.7555447, 38.50935 ] } },
{ "type": "Feature", "properties": { "osm_id": "256594759", "code": 1001, "fclass": "city", "population": 273300, "name": "해주시" }, "geometry": { "type": "Point", "coordinates": [ 125.7140086, 38.0401144 ] } },
{ "type": "Feature", "properties": { "osm_id": "256629919", "code": 1001, "fclass": "city", "population": 768551, "name": "함흥시" }, "geometry": { "type": "Point", "coordinates": [ 127.5384272, 39.9165451 ] } },
{ "type": "Feature", "properties": { "osm_id": "256630332", "code": 1001, "fclass": "city", "population": 122934, "name": "문천시" }, "geometry": { "type": "Point", "coordinates": [ 127.3598714, 39.2370094 ] } },
{ "type": "Feature", "properties": { "osm_id": "256630703", "code": 1001, "fclass": "city", "population": 152759, "name": "신포시" }, "geometry": { "type": "Point", "coordinates": [ 128.191494400000011, 40.0316049 ] } },
{ "type": "Feature", "properties": { "osm_id": "256631749", "code": 1002, "fclass": "town", "population": 0, "name": "경성읍" }, "geometry": { "type": "Point", "coordinates": [ 129.6046057, 41.5856521 ] } },
{ "type": "Feature", "properties": { "osm_id": "256632032", "code": 1010, "fclass": "suburb", "population": 0, "name": "라진구역" }, "geometry": { "type": "Point", "coordinates": [ 130.3005306, 42.2534855 ] } },
{ "type": "Feature", "properties": { "osm_id": "256632326", "code": 1002, "fclass": "town", "population": 0, "name": "경흥읍" }, "geometry": { "type": "Point", "coordinates": [ 130.3386084, 42.5231815 ] } },
{ "type": "Feature", "properties": { "osm_id": "256632365", "code": 1001, "fclass": "city", "population": 153532, "name": "회령시" }, "geometry": { "type": "Point", "coordinates": [ 129.7542469, 42.4342802 ] } },
{ "type": "Feature", "properties": { "osm_id": "256632539", "code": 1002, "fclass": "town", "population": 0, "name": "어랑읍" }, "geometry": { "type": "Point", "coordinates": [ 129.6585074, 41.4494083 ] } },
{ "type": "Feature", "properties": { "osm_id": "256632647", "code": 1002, "fclass": "town", "population": 0, "name": "명간읍" }, "geometry": { "type": "Point", "coordinates": [ 129.497489, 41.2592177 ] } },
{ "type": "Feature", "properties": { "osm_id": "256633098", "code": 1002, "fclass": "town", "population": 0, "name": "순안" }, "geometry": { "type": "Point", "coordinates": [ 125.6896809, 39.1979825 ] } },
{ "type": "Feature", "properties": { "osm_id": "256633232", "code": 1001, "fclass": "city", "population": 288112, "name": "신의주시" }, "geometry": { "type": "Point", "coordinates": [ 124.3977559, 40.0940758 ] } },
{ "type": "Feature", "properties": { "osm_id": "262410966", "code": 1002, "fclass": "town", "population": 0, "name": "송림시" }, "geometry": { "type": "Point", "coordinates": [ 125.6460599, 38.7535598 ] } },
{ "type": "Feature", "properties": { "osm_id": "262411049", "code": 1002, "fclass": "town", "population": 0, "name": "대안동" }, "geometry": { "type": "Point", "coordinates": [ 125.5071481, 38.8366118 ] } },
{ "type": "Feature", "properties": { "osm_id": "262411176", "code": 1002, "fclass": "town", "population": 0, "name": "강남읍" }, "geometry": { "type": "Point", "coordinates": [ 125.6396795, 38.8983453 ] } },
{ "type": "Feature", "properties": { "osm_id": "262411443", "code": 1002, "fclass": "town", "population": 0, "name": "은파읍" }, "geometry": { "type": "Point", "coordinates": [ 125.7931647, 38.408138 ] } },
{ "type": "Feature", "properties": { "osm_id": "262411583", "code": 1002, "fclass": "town", "population": 0, "name": "신원읍" }, "geometry": { "type": "Point", "coordinates": [ 125.7667344, 38.2350043 ] } },
{ "type": "Feature", "properties": { "osm_id": "262411914", "code": 1002, "fclass": "town", "population": 0, "name": "재령읍" }, "geometry": { "type": "Point", "coordinates": [ 125.6164868, 38.3981118 ] } },
{ "type": "Feature", "properties": { "osm_id": "262412274", "code": 1002, "fclass": "town", "population": 0, "name": "신천읍" }, "geometry": { "type": "Point", "coordinates": [ 125.4901879, 38.3534289 ] } },
{ "type": "Feature", "properties": { "osm_id": "262412431", "code": 1002, "fclass": "town", "population": 0, "name": "삼천읍" }, "geometry": { "type": "Point", "coordinates": [ 125.328437, 38.3570999 ] } },
{ "type": "Feature", "properties": { "osm_id": "262412455", "code": 1002, "fclass": "town", "population": 0, "name": "과일읍" }, "geometry": { "type": "Point", "coordinates": [ 125.0165097, 38.4437604 ] } },
{ "type": "Feature", "properties": { "osm_id": "262413142", "code": 1002, "fclass": "town", "population": 0, "name": "금천읍" }, "geometry": { "type": "Point", "coordinates": [ 126.4758675, 38.1618863 ] } },
{ "type": "Feature", "properties": { "osm_id": "262413203", "code": 1002, "fclass": "town", "population": 0, "name": "서흥읍" }, "geometry": { "type": "Point", "coordinates": [ 126.2310784, 38.4221853 ] } },
{ "type": "Feature", "properties": { "osm_id": "262413404", "code": 1002, "fclass": "town", "population": 0, "name": "곡산읍" }, "geometry": { "type": "Point", "coordinates": [ 126.6705315, 38.781447 ] } },
{ "type": "Feature", "properties": { "osm_id": "262413564", "code": 1002, "fclass": "town", "population": 0, "name": "연산읍" }, "geometry": { "type": "Point", "coordinates": [ 126.256656, 38.8717163 ] } },
{ "type": "Feature", "properties": { "osm_id": "262413665", "code": 1002, "fclass": "town", "population": 0, "name": "수안읍" }, "geometry": { "type": "Point", "coordinates": [ 126.353988, 38.7731498 ] } },
{ "type": "Feature", "properties": { "osm_id": "264045740", "code": 1002, "fclass": "town", "population": 0, "name": "옹진읍" }, "geometry": { "type": "Point", "coordinates": [ 125.3634999, 37.9345908 ] } },
{ "type": "Feature", "properties": { "osm_id": "264047428", "code": 1002, "fclass": "town", "population": 0, "name": "평산읍" }, "geometry": { "type": "Point", "coordinates": [ 126.3979178, 38.3381457 ] } },
{ "type": "Feature", "properties": { "osm_id": "264048594", "code": 1001, "fclass": "city", "population": 192680, "name": "혜산시" }, "geometry": { "type": "Point", "coordinates": [ 128.1778371, 41.4029448 ] } },
{ "type": "Feature", "properties": { "osm_id": "264049134", "code": 1002, "fclass": "town", "population": 0, "name": "삼지연시" }, "geometry": { "type": "Point", "coordinates": [ 128.3247859, 41.8058062 ] } },
{ "type": "Feature", "properties": { "osm_id": "264052225", "code": 1002, "fclass": "town", "population": 0, "name": "리원읍" }, "geometry": { "type": "Point", "coordinates": [ 128.653512, 40.323273 ] } },
{ "type": "Feature", "properties": { "osm_id": "264056989", "code": 1002, "fclass": "town", "population": 0, "name": "태탄읍" }, "geometry": { "type": "Point", "coordinates": [ 125.3016407, 38.0859867 ] } },
{ "type": "Feature", "properties": { "osm_id": "264063426", "code": 1001, "fclass": "city", "population": 116760, "name": "만포시" }, "geometry": { "type": "Point", "coordinates": [ 126.2876899, 41.1547179 ] } },
{ "type": "Feature", "properties": { "osm_id": "264064059", "code": 1001, "fclass": "city", "population": 251971, "name": "강계시" }, "geometry": { "type": "Point", "coordinates": [ 126.5975399, 40.9659004 ] } },
{ "type": "Feature", "properties": { "osm_id": "264065251", "code": 1001, "fclass": "city", "population": 189742, "name": "정주시" }, "geometry": { "type": "Point", "coordinates": [ 125.2101297, 39.6929225 ] } },
{ "type": "Feature", "properties": { "osm_id": "264065858", "code": 1001, "fclass": "city", "population": 196515, "name": "구성시" }, "geometry": { "type": "Point", "coordinates": [ 125.252058, 39.9792248 ] } },
{ "type": "Feature", "properties": { "osm_id": "264068434", "code": 1002, "fclass": "town", "population": 0, "name": "룡천읍" }, "geometry": { "type": "Point", "coordinates": [ 124.4634901, 39.983773 ] } },
{ "type": "Feature", "properties": { "osm_id": "340275842", "code": 1002, "fclass": "town", "population": 0, "name": "김정숙읍" }, "geometry": { "type": "Point", "coordinates": [ 127.7749879, 41.4203779 ] } },
{ "type": "Feature", "properties": { "osm_id": "340276178", "code": 1002, "fclass": "town", "population": 0, "name": "金华乡 금화향" }, "geometry": { "type": "Point", "coordinates": [ 128.027227900000014, 41.4281701 ] } },
{ "type": "Feature", "properties": { "osm_id": "340276222", "code": 1003, "fclass": "village", "population": 0, "name": "干沟子村 간구자촌" }, "geometry": { "type": "Point", "coordinates": [ 127.9610599, 41.44479 ] } },
{ "type": "Feature", "properties": { "osm_id": "340282344", "code": 1003, "fclass": "village", "population": 0, "name": "고건원로동자구" }, "geometry": { "type": "Point", "coordinates": [ 130.206263799999988, 42.6698274 ] } },
{ "type": "Feature", "properties": { "osm_id": "343234697", "code": 1001, "fclass": "city", "population": 240117, "name": "안주시" }, "geometry": { "type": "Point", "coordinates": [ 125.6611381, 39.6173686 ] } },
{ "type": "Feature", "properties": { "osm_id": "343729036", "code": 1002, "fclass": "town", "population": 0, "name": "박천읍" }, "geometry": { "type": "Point", "coordinates": [ 125.5823814, 39.7228321 ] } },
{ "type": "Feature", "properties": { "osm_id": "343731139", "code": 1002, "fclass": "town", "population": 0, "name": "숙천읍" }, "geometry": { "type": "Point", "coordinates": [ 125.6209592, 39.4137061 ] } },
{ "type": "Feature", "properties": { "osm_id": "344242149", "code": 1002, "fclass": "town", "population": 0, "name": "고원읍" }, "geometry": { "type": "Point", "coordinates": [ 127.2438233, 39.4403967 ] } },
{ "type": "Feature", "properties": { "osm_id": "413516573", "code": 1002, "fclass": "town", "population": 0, "name": "랑림읍" }, "geometry": { "type": "Point", "coordinates": [ 127.1295051, 40.9683614 ] } },
{ "type": "Feature", "properties": { "osm_id": "414078628", "code": 1002, "fclass": "town", "population": 0, "name": "이천읍" }, "geometry": { "type": "Point", "coordinates": [ 126.8853896, 38.4897015 ] } },
{ "type": "Feature", "properties": { "osm_id": "415151774", "code": 1003, "fclass": "village", "population": 0, "name": "대강리" }, "geometry": { "type": "Point", "coordinates": [ 128.35217, 38.600181 ] } },
{ "type": "Feature", "properties": { "osm_id": "415152129", "code": 1003, "fclass": "village", "population": 0, "name": "사시리" }, "geometry": { "type": "Point", "coordinates": [ 126.7591863, 38.0216087 ] } },
{ "type": "Feature", "properties": { "osm_id": "415152136", "code": 1003, "fclass": "village", "population": 0, "name": "갈현리" }, "geometry": { "type": "Point", "coordinates": [ 126.87031, 38.0463 ] } },
{ "type": "Feature", "properties": { "osm_id": "415152141", "code": 1003, "fclass": "village", "population": 0, "name": "포춘리" }, "geometry": { "type": "Point", "coordinates": [ 126.87636, 38.06333 ] } },
{ "type": "Feature", "properties": { "osm_id": "415152142", "code": 1003, "fclass": "village", "population": 0, "name": "기곡리" }, "geometry": { "type": "Point", "coordinates": [ 126.88507, 38.08782 ] } },
{ "type": "Feature", "properties": { "osm_id": "415152148", "code": 1003, "fclass": "village", "population": 0, "name": "고왕리" }, "geometry": { "type": "Point", "coordinates": [ 126.90657, 38.09986 ] } },
{ "type": "Feature", "properties": { "osm_id": "415152151", "code": 1003, "fclass": "village", "population": 0, "name": "고잔상리" }, "geometry": { "type": "Point", "coordinates": [ 126.9158, 38.11412 ] } },
{ "type": "Feature", "properties": { "osm_id": "415152156", "code": 1003, "fclass": "village", "population": 0, "name": "고잔하리" }, "geometry": { "type": "Point", "coordinates": [ 126.94483, 38.12406 ] } },
{ "type": "Feature", "properties": { "osm_id": "415152159", "code": 1003, "fclass": "village", "population": 0, "name": "적음리" }, "geometry": { "type": "Point", "coordinates": [ 126.97376, 38.17998 ] } },
{ "type": "Feature", "properties": { "osm_id": "415152162", "code": 1003, "fclass": "village", "population": 0, "name": "진곡리" }, "geometry": { "type": "Point", "coordinates": [ 126.9738, 38.15732 ] } },
{ "type": "Feature", "properties": { "osm_id": "415152574", "code": 1050, "fclass": "locality", "population": 0, "name": "조산리" }, "geometry": { "type": "Point", "coordinates": [ 126.679034, 37.9424745 ] } },
{ "type": "Feature", "properties": { "osm_id": "415152575", "code": 1050, "fclass": "locality", "population": 0, "name": "어용리" }, "geometry": { "type": "Point", "coordinates": [ 126.69355, 37.9527 ] } },
{ "type": "Feature", "properties": { "osm_id": "415152577", "code": 1050, "fclass": "locality", "population": 0, "name": "금능리" }, "geometry": { "type": "Point", "coordinates": [ 126.71739, 37.95304 ] } },
{ "type": "Feature", "properties": { "osm_id": "415152586", "code": 1050, "fclass": "locality", "population": 0, "name": "송산리" }, "geometry": { "type": "Point", "coordinates": [ 126.69116, 37.92654 ] } },
{ "type": "Feature", "properties": { "osm_id": "415152587", "code": 1050, "fclass": "locality", "population": 0, "name": "노하리" }, "geometry": { "type": "Point", "coordinates": [ 126.69494, 37.87777 ] } },
{ "type": "Feature", "properties": { "osm_id": "415152590", "code": 1050, "fclass": "locality", "population": 0, "name": "정동리" }, "geometry": { "type": "Point", "coordinates": [ 126.6920153, 37.8517968 ] } },
{ "type": "Feature", "properties": { "osm_id": "530829972", "code": 1003, "fclass": "village", "population": 0, "name": "두만강동" }, "geometry": { "type": "Point", "coordinates": [ 130.600261499999988, 42.4237861 ] } },
{ "type": "Feature", "properties": { "osm_id": "530848646", "code": 1001, "fclass": "city", "population": 196954, "name": "라선시" }, "geometry": { "type": "Point", "coordinates": [ 130.3113296, 42.2497316 ] } },
{ "type": "Feature", "properties": { "osm_id": "677285319", "code": 1003, "fclass": "village", "population": 0, "name": "장포리" }, "geometry": { "type": "Point", "coordinates": [ 128.3085271, 38.7077918 ] } },
{ "type": "Feature", "properties": { "osm_id": "991650348", "code": 1001, "fclass": "city", "population": 345875, "name": "단천시" }, "geometry": { "type": "Point", "coordinates": [ 128.9038646, 40.4590505 ] } },
{ "type": "Feature", "properties": { "osm_id": "1130116427", "code": 1004, "fclass": "hamlet", "population": 0, "name": "구룡평" }, "geometry": { "type": "Point", "coordinates": [ 130.5221895, 42.3751432 ] } },
{ "type": "Feature", "properties": { "osm_id": "1130116589", "code": 1004, "fclass": "hamlet", "population": 0, "name": null }, "geometry": { "type": "Point", "coordinates": [ 130.4975775, 42.349125 ] } },
{ "type": "Feature", "properties": { "osm_id": "1130116788", "code": 1004, "fclass": "hamlet", "population": 0, "name": null }, "geometry": { "type": "Point", "coordinates": [ 130.4550774, 42.3530269 ] } },
{ "type": "Feature", "properties": { "osm_id": "1130116890", "code": 1003, "fclass": "village", "population": 0, "name": "홍의리" }, "geometry": { "type": "Point", "coordinates": [ 130.538242, 42.4238168 ] } },
{ "type": "Feature", "properties": { "osm_id": "1130117137", "code": 1004, "fclass": "hamlet", "population": 0, "name": "신부락" }, "geometry": { "type": "Point", "coordinates": [ 130.476913700000011, 42.356467 ] } },
{ "type": "Feature", "properties": { "osm_id": "1130117442", "code": 1004, "fclass": "hamlet", "population": 0, "name": null }, "geometry": { "type": "Point", "coordinates": [ 130.4654554, 42.3624922 ] } },
{ "type": "Feature", "properties": { "osm_id": "1208750273", "code": 1004, "fclass": "hamlet", "population": 0, "name": null }, "geometry": { "type": "Point", "coordinates": [ 124.845296, 38.1816052 ] } },
{ "type": "Feature", "properties": { "osm_id": "1208750405", "code": 1003, "fclass": "village", "population": 0, "name": "신안리" }, "geometry": { "type": "Point", "coordinates": [ 124.8233985, 38.166339 ] } },
{ "type": "Feature", "properties": { "osm_id": "1210712322", "code": 1002, "fclass": "town", "population": 0, "name": "룡연읍" }, "geometry": { "type": "Point", "coordinates": [ 124.8824434, 38.1500943 ] } },
{ "type": "Feature", "properties": { "osm_id": "1248207921", "code": 1002, "fclass": "town", "population": 23158, "name": "연안읍" }, "geometry": { "type": "Point", "coordinates": [ 126.1602107, 37.9075884 ] } },
{ "type": "Feature", "properties": { "osm_id": "1248255313", "code": 1003, "fclass": "village", "population": 0, "name": "해남리" }, "geometry": { "type": "Point", "coordinates": [ 126.1401956, 37.7874848 ] } },
{ "type": "Feature", "properties": { "osm_id": "1271150197", "code": 1002, "fclass": "town", "population": 0, "name": "부전읍" }, "geometry": { "type": "Point", "coordinates": [ 127.6179255, 40.4872014 ] } },
{ "type": "Feature", "properties": { "osm_id": "1271150255", "code": 1002, "fclass": "town", "population": 0, "name": "신흥읍" }, "geometry": { "type": "Point", "coordinates": [ 127.5531411, 40.191773 ] } },
{ "type": "Feature", "properties": { "osm_id": "1348975798", "code": 1003, "fclass": "village", "population": 0, "name": "증악로동자구" }, "geometry": { "type": "Point", "coordinates": [ 125.2110205, 38.7929161 ] } },
{ "type": "Feature", "properties": { "osm_id": "1348994040", "code": 1004, "fclass": "hamlet", "population": 0, "name": null }, "geometry": { "type": "Point", "coordinates": [ 125.2561182, 38.8364838 ] } },
{ "type": "Feature", "properties": { "osm_id": "1348994749", "code": 1004, "fclass": "hamlet", "population": 0, "name": null }, "geometry": { "type": "Point", "coordinates": [ 125.2596449, 38.8443422 ] } },
{ "type": "Feature", "properties": { "osm_id": "1349113822", "code": 1003, "fclass": "village", "population": 0, "name": null }, "geometry": { "type": "Point", "coordinates": [ 129.650772100000012, 41.4192599 ] } },
{ "type": "Feature", "properties": { "osm_id": "1349296848", "code": 1003, "fclass": "village", "population": 0, "name": "두남리" }, "geometry": { "type": "Point", "coordinates": [ 129.5980293, 41.4688364 ] } },
{ "type": "Feature", "properties": { "osm_id": "1374477472", "code": 1003, "fclass": "village", "population": 0, "name": null }, "geometry": { "type": "Point", "coordinates": [ 127.4005781, 38.402282 ] } },
{ "type": "Feature", "properties": { "osm_id": "1574476314", "code": 1003, "fclass": "village", "population": 0, "name": "성북리" }, "geometry": { "type": "Point", "coordinates": [ 127.4401583, 38.8756048 ] } },
{ "type": "Feature", "properties": { "osm_id": "1615927173", "code": 1003, "fclass": "village", "population": 0, "name": "모풍리" }, "geometry": { "type": "Point", "coordinates": [ 127.4978455, 38.9875747 ] } },
{ "type": "Feature", "properties": { "osm_id": "1651840626", "code": 1001, "fclass": "city", "population": 0, "name": "长白县 장백현" }, "geometry": { "type": "Point", "coordinates": [ 128.194771800000012, 41.4177015 ] } },
{ "type": "Feature", "properties": { "osm_id": "1651873529", "code": 1002, "fclass": "town", "population": 0, "name": "马鹿沟镇 마록구진" }, "geometry": { "type": "Point", "coordinates": [ 128.2089565, 41.4400514 ] } },
{ "type": "Feature", "properties": { "osm_id": "1716322441", "code": 1003, "fclass": "village", "population": 0, "name": "동산리" }, "geometry": { "type": "Point", "coordinates": [ 126.8123156, 38.7847299 ] } },
{ "type": "Feature", "properties": { "osm_id": "1891299111", "code": 1002, "fclass": "town", "population": 0, "name": "상원읍" }, "geometry": { "type": "Point", "coordinates": [ 126.0939931, 38.8449136 ] } },
{ "type": "Feature", "properties": { "osm_id": "1895965640", "code": 1002, "fclass": "town", "population": 0, "name": "양덕읍" }, "geometry": { "type": "Point", "coordinates": [ 126.6473243, 39.2198812 ] } },
{ "type": "Feature", "properties": { "osm_id": "1946483224", "code": 1002, "fclass": "town", "population": 0, "name": "북창읍" }, "geometry": { "type": "Point", "coordinates": [ 126.3009168, 39.5718561 ] } },
{ "type": "Feature", "properties": { "osm_id": "1946549941", "code": 1001, "fclass": "city", "population": 237133, "name": "덕천시" }, "geometry": { "type": "Point", "coordinates": [ 126.3132673, 39.7657075 ] } },
{ "type": "Feature", "properties": { "osm_id": "1967131653", "code": 1001, "fclass": "city", "population": 168180, "name": "희천시" }, "geometry": { "type": "Point", "coordinates": [ 126.2760271, 40.171279 ] } },
{ "type": "Feature", "properties": { "osm_id": "2036276746", "code": 1002, "fclass": "town", "population": 0, "name": "요덕읍" }, "geometry": { "type": "Point", "coordinates": [ 126.8409369, 39.6103185 ] } },
{ "type": "Feature", "properties": { "osm_id": "2079101588", "code": 1003, "fclass": "village", "population": 0, "name": "행영리" }, "geometry": { "type": "Point", "coordinates": [ 129.9353964, 42.5378138 ] } },
{ "type": "Feature", "properties": { "osm_id": "2079101592", "code": 1003, "fclass": "village", "population": 0, "name": "굴산리" }, "geometry": { "type": "Point", "coordinates": [ 129.9520842, 42.5667726 ] } },
{ "type": "Feature", "properties": { "osm_id": "2079101593", "code": 1003, "fclass": "village", "population": 0, "name": "락생리" }, "geometry": { "type": "Point", "coordinates": [ 129.9262218, 42.5225651 ] } },
{ "type": "Feature", "properties": { "osm_id": "2079101933", "code": 1003, "fclass": "village", "population": 0, "name": "세천동" }, "geometry": { "type": "Point", "coordinates": [ 129.8260435, 42.5774981 ] } },
{ "type": "Feature", "properties": { "osm_id": "2081789529", "code": 1004, "fclass": "hamlet", "population": 0, "name": null }, "geometry": { "type": "Point", "coordinates": [ 127.5644773, 38.7225373 ] } },
{ "type": "Feature", "properties": { "osm_id": "2088166810", "code": 1003, "fclass": "village", "population": 0, "name": "장항리" }, "geometry": { "type": "Point", "coordinates": [ 126.7103151, 40.9600349 ] } },
{ "type": "Feature", "properties": { "osm_id": "2088166849", "code": 1004, "fclass": "hamlet", "population": 0, "name": null }, "geometry": { "type": "Point", "coordinates": [ 126.6794996, 40.9702548 ] } },
{ "type": "Feature", "properties": { "osm_id": "2088166979", "code": 1004, "fclass": "hamlet", "population": 0, "name": null }, "geometry": { "type": "Point", "coordinates": [ 126.6585705, 40.9918148 ] } },
{ "type": "Feature", "properties": { "osm_id": "2088166984", "code": 1004, "fclass": "hamlet", "population": 0, "name": null }, "geometry": { "type": "Point", "coordinates": [ 126.6595952, 40.9938172 ] } },
{ "type": "Feature", "properties": { "osm_id": "2088167059", "code": 1004, "fclass": "hamlet", "population": 0, "name": null }, "geometry": { "type": "Point", "coordinates": [ 126.6733086, 41.0066727 ] } },
{ "type": "Feature", "properties": { "osm_id": "2088193239", "code": 1004, "fclass": "hamlet", "population": 0, "name": null }, "geometry": { "type": "Point", "coordinates": [ 126.3067287, 40.3298707 ] } },
{ "type": "Feature", "properties": { "osm_id": "2088193240", "code": 1004, "fclass": "hamlet", "population": 0, "name": null }, "geometry": { "type": "Point", "coordinates": [ 126.3109561, 40.3383278 ] } },
{ "type": "Feature", "properties": { "osm_id": "2091511055", "code": 1002, "fclass": "town", "population": 65956, "name": "남양로동자구" }, "geometry": { "type": "Point", "coordinates": [ 129.857109900000012, 42.9531564 ] } },
{ "type": "Feature", "properties": { "osm_id": "2092659913", "code": 1003, "fclass": "village", "population": 0, "name": "명룡로동자구" }, "geometry": { "type": "Point", "coordinates": [ 130.3376994, 42.5768173 ] } },
{ "type": "Feature", "properties": { "osm_id": "2092754016", "code": 1002, "fclass": "town", "population": 0, "name": "경원읍" }, "geometry": { "type": "Point", "coordinates": [ 130.2057925, 42.8131968 ] } },
{ "type": "Feature", "properties": { "osm_id": "2092874219", "code": 1002, "fclass": "town", "population": 0, "name": "종성로동자구" }, "geometry": { "type": "Point", "coordinates": [ 129.794510699999989, 42.763316 ] } },
{ "type": "Feature", "properties": { "osm_id": "2092892959", "code": 1003, "fclass": "village", "population": 0, "name": "강안리" }, "geometry": { "type": "Point", "coordinates": [ 129.8240338, 42.8268903 ] } },
{ "type": "Feature", "properties": { "osm_id": "2093829704", "code": 1003, "fclass": "village", "population": 0, "name": "인계리" }, "geometry": { "type": "Point", "coordinates": [ 129.7533458, 42.52507 ] } },
{ "type": "Feature", "properties": { "osm_id": "2093829810", "code": 1003, "fclass": "village", "population": 0, "name": "泉水村" }, "geometry": { "type": "Point", "coordinates": [ 129.7340007, 42.5510826 ] } },
{ "type": "Feature", "properties": { "osm_id": "2093830185", "code": 1003, "fclass": "village", "population": 0, "name": "학포리" }, "geometry": { "type": "Point", "coordinates": [ 129.7621015, 42.5917669 ] } },
{ "type": "Feature", "properties": { "osm_id": "2093997689", "code": 1004, "fclass": "hamlet", "population": 0, "name": "요동" }, "geometry": { "type": "Point", "coordinates": [ 129.7812137, 42.4141082 ] } },
{ "type": "Feature", "properties": { "osm_id": "2093997744", "code": 1003, "fclass": "village", "population": 0, "name": "수북동" }, "geometry": { "type": "Point", "coordinates": [ 129.8202551, 42.4395501 ] } },
{ "type": "Feature", "properties": { "osm_id": "2093997990", "code": 1002, "fclass": "town", "population": 0, "name": "三合镇 삼합진" }, "geometry": { "type": "Point", "coordinates": [ 129.7376333, 42.4772936 ] } },
{ "type": "Feature", "properties": { "osm_id": "2093998622", "code": 1003, "fclass": "village", "population": 0, "name": "궁심동" }, "geometry": { "type": "Point", "coordinates": [ 129.789579, 42.4911459 ] } },
{ "type": "Feature", "properties": { "osm_id": "2093998854", "code": 1003, "fclass": "village", "population": 0, "name": null }, "geometry": { "type": "Point", "coordinates": [ 129.7278076, 42.4966771 ] } },
{ "type": "Feature", "properties": { "osm_id": "2093998997", "code": 1003, "fclass": "village", "population": 0, "name": "胜迹村" }, "geometry": { "type": "Point", "coordinates": [ 129.723306799999989, 42.4991293 ] } },
{ "type": "Feature", "properties": { "osm_id": "2093999225", "code": 1003, "fclass": "village", "population": 0, "name": "江域村" }, "geometry": { "type": "Point", "coordinates": [ 129.730033100000014, 42.5578173 ] } },
{ "type": "Feature", "properties": { "osm_id": "2094228933", "code": 1002, "fclass": "town", "population": 0, "name": "원정동" }, "geometry": { "type": "Point", "coordinates": [ 130.5038202, 42.5767206 ] } },
{ "type": "Feature", "properties": { "osm_id": "2094693044", "code": 1010, "fclass": "suburb", "population": 0, "name": "선봉구역" }, "geometry": { "type": "Point", "coordinates": [ 130.3965785, 42.33957 ] } },
{ "type": "Feature", "properties": { "osm_id": "2096131301", "code": 1003, "fclass": "village", "population": 0, "name": "광선로동자구" }, "geometry": { "type": "Point", "coordinates": [ 129.7845223, 42.6900249 ] } },
{ "type": "Feature", "properties": { "osm_id": "2096155438", "code": 1002, "fclass": "town", "population": 18611, "name": "开山屯镇 개산툰진" }, "geometry": { "type": "Point", "coordinates": [ 129.7561096, 42.7011914 ] } },
{ "type": "Feature", "properties": { "osm_id": "2096293438", "code": 1002, "fclass": "town", "population": 0, "name": "온성읍" }, "geometry": { "type": "Point", "coordinates": [ 129.9896419, 42.9575957 ] } },
{ "type": "Feature", "properties": { "osm_id": "2096293443", "code": 1003, "fclass": "village", "population": 0, "name": "왕재산리" }, "geometry": { "type": "Point", "coordinates": [ 130.0483338, 42.9504935 ] } },
{ "type": "Feature", "properties": { "osm_id": "2097330727", "code": 1003, "fclass": "village", "population": 0, "name": "칠성리" }, "geometry": { "type": "Point", "coordinates": [ 129.216989899999987, 42.2636818 ] } },
{ "type": "Feature", "properties": { "osm_id": "2097342990", "code": 1002, "fclass": "town", "population": 0, "name": "무산읍" }, "geometry": { "type": "Point", "coordinates": [ 129.2143058, 42.2243428 ] } },
{ "type": "Feature", "properties": { "osm_id": "2098431213", "code": 1002, "fclass": "town", "population": 0, "name": "南坪镇 남평진" }, "geometry": { "type": "Point", "coordinates": [ 129.205580200000014, 42.2634972 ] } },
{ "type": "Feature", "properties": { "osm_id": "2104753484", "code": 1004, "fclass": "hamlet", "population": 0, "name": null }, "geometry": { "type": "Point", "coordinates": [ 129.093596100000013, 42.0031245 ] } },
{ "type": "Feature", "properties": { "osm_id": "2104764129", "code": 1002, "fclass": "town", "population": 0, "name": "연사읍" }, "geometry": { "type": "Point", "coordinates": [ 129.009244200000012, 41.9069523 ] } },
{ "type": "Feature", "properties": { "osm_id": "2121766710", "code": 1002, "fclass": "town", "population": 0, "name": "백암로동자구" }, "geometry": { "type": "Point", "coordinates": [ 128.8021276, 41.2454524 ] } },
{ "type": "Feature", "properties": { "osm_id": "2121853873", "code": 1003, "fclass": "village", "population": 0, "name": "대택로동자구" }, "geometry": { "type": "Point", "coordinates": [ 128.8517468, 41.2593816 ] } },
{ "type": "Feature", "properties": { "osm_id": "2121889523", "code": 1003, "fclass": "village", "population": 0, "name": "령하로동자구" }, "geometry": { "type": "Point", "coordinates": [ 128.6976573, 41.2717907 ] } },
{ "type": "Feature", "properties": { "osm_id": "2128156166", "code": 1003, "fclass": "village", "population": 0, "name": "농사리" }, "geometry": { "type": "Point", "coordinates": [ 128.8301482, 42.0137326 ] } },
{ "type": "Feature", "properties": { "osm_id": "2245160539", "code": 1002, "fclass": "town", "population": 0, "name": "녕변읍" }, "geometry": { "type": "Point", "coordinates": [ 125.8049562, 39.8144698 ] } },
{ "type": "Feature", "properties": { "osm_id": "2246306887", "code": 1002, "fclass": "town", "population": 0, "name": "태천읍" }, "geometry": { "type": "Point", "coordinates": [ 125.4942845, 39.9215369 ] } },
{ "type": "Feature", "properties": { "osm_id": "2251324011", "code": 1003, "fclass": "village", "population": 0, "name": "서흥리" }, "geometry": { "type": "Point", "coordinates": [ 128.3847135, 40.1391274 ] } },
{ "type": "Feature", "properties": { "osm_id": "2257644442", "code": 1002, "fclass": "town", "population": 0, "name": "浪头镇" }, "geometry": { "type": "Point", "coordinates": [ 124.3339295, 40.0370505 ] } },
{ "type": "Feature", "properties": { "osm_id": "2288051472", "code": 1002, "fclass": "town", "population": 0, "name": "염주읍" }, "geometry": { "type": "Point", "coordinates": [ 124.6018032, 39.8957672 ] } },
{ "type": "Feature", "properties": { "osm_id": "2288628396", "code": 1002, "fclass": "town", "population": 0, "name": "麻线乡" }, "geometry": { "type": "Point", "coordinates": [ 126.1523004, 41.0934923 ] } },
{ "type": "Feature", "properties": { "osm_id": "2298504433", "code": 1002, "fclass": "town", "population": 0, "name": "피현읍" }, "geometry": { "type": "Point", "coordinates": [ 124.6167602, 40.0144771 ] } },
{ "type": "Feature", "properties": { "osm_id": "2298535943", "code": 1002, "fclass": "town", "population": 0, "name": "동림읍" }, "geometry": { "type": "Point", "coordinates": [ 124.7104498, 39.8586776 ] } },
{ "type": "Feature", "properties": { "osm_id": "2299275982", "code": 1002, "fclass": "town", "population": 0, "name": "철산읍" }, "geometry": { "type": "Point", "coordinates": [ 124.6786728, 39.7708227 ] } },
{ "type": "Feature", "properties": { "osm_id": "2301879008", "code": 1003, "fclass": "village", "population": 0, "name": null }, "geometry": { "type": "Point", "coordinates": [ 126.6514015, 38.147542 ] } },
{ "type": "Feature", "properties": { "osm_id": "2306678581", "code": 1003, "fclass": "village", "population": 0, "name": "마양로동자구" }, "geometry": { "type": "Point", "coordinates": [ 129.4618596, 42.0000187 ] } },
{ "type": "Feature", "properties": { "osm_id": "2323336297", "code": 1002, "fclass": "town", "population": 0, "name": "백암읍" }, "geometry": { "type": "Point", "coordinates": [ 128.81205940000001, 41.567001 ] } },
{ "type": "Feature", "properties": { "osm_id": "2328111832", "code": 1003, "fclass": "village", "population": 0, "name": "유평로동자구" }, "geometry": { "type": "Point", "coordinates": [ 128.8322493, 41.7682349 ] } },
{ "type": "Feature", "properties": { "osm_id": "2340232919", "code": 1002, "fclass": "town", "population": 0, "name": "大栗子街道" }, "geometry": { "type": "Point", "coordinates": [ 126.8316867, 41.7299215 ] } },
{ "type": "Feature", "properties": { "osm_id": "2340232922", "code": 1003, "fclass": "village", "population": 0, "name": "蒿子沟村" }, "geometry": { "type": "Point", "coordinates": [ 126.3823673, 41.3014746 ] } },
{ "type": "Feature", "properties": { "osm_id": "2408614868", "code": 1003, "fclass": "village", "population": 0, "name": "신당리" }, "geometry": { "type": "Point", "coordinates": [ 126.927337, 38.5038521 ] } },
{ "type": "Feature", "properties": { "osm_id": "2444890697", "code": 1002, "fclass": "town", "population": 0, "name": "곽산읍" }, "geometry": { "type": "Point", "coordinates": [ 125.0830144, 39.6862361 ] } },
{ "type": "Feature", "properties": { "osm_id": "2445750229", "code": 1003, "fclass": "village", "population": 0, "name": "삼상리" }, "geometry": { "type": "Point", "coordinates": [ 124.5327301, 40.0808441 ] } },
{ "type": "Feature", "properties": { "osm_id": "2446440893", "code": 1003, "fclass": "village", "population": 0, "name": "서호리" }, "geometry": { "type": "Point", "coordinates": [ 124.4992218, 40.1834517 ] } },
{ "type": "Feature", "properties": { "osm_id": "2446445320", "code": 1002, "fclass": "town", "population": 0, "name": "의주읍" }, "geometry": { "type": "Point", "coordinates": [ 124.5311299, 40.1977187 ] } },
{ "type": "Feature", "properties": { "osm_id": "2471928522", "code": 1003, "fclass": "village", "population": 0, "name": "봉동리" }, "geometry": { "type": "Point", "coordinates": [ 126.621183, 37.9458252 ] } },
{ "type": "Feature", "properties": { "osm_id": "2471991254", "code": 1003, "fclass": "village", "population": 0, "name": "평화리" }, "geometry": { "type": "Point", "coordinates": [ 126.6398985, 37.9525471 ] } },
{ "type": "Feature", "properties": { "osm_id": "2472150033", "code": 1003, "fclass": "village", "population": 0, "name": "금학리" }, "geometry": { "type": "Point", "coordinates": [ 125.8287641, 37.9643723 ] } },
{ "type": "Feature", "properties": { "osm_id": "2474762999", "code": 1004, "fclass": "hamlet", "population": 0, "name": "달루리" }, "geometry": { "type": "Point", "coordinates": [ 126.1540893, 37.8919694 ] } },
{ "type": "Feature", "properties": { "osm_id": "2474763637", "code": 1003, "fclass": "village", "population": 0, "name": "개안리" }, "geometry": { "type": "Point", "coordinates": [ 126.1785359, 37.902666 ] } },
{ "type": "Feature", "properties": { "osm_id": "2474763768", "code": 1003, "fclass": "village", "population": 0, "name": "라진포리" }, "geometry": { "type": "Point", "coordinates": [ 126.1831038, 37.8802573 ] } },
{ "type": "Feature", "properties": { "osm_id": "2474764013", "code": 1003, "fclass": "village", "population": 0, "name": "호남리" }, "geometry": { "type": "Point", "coordinates": [ 126.1631637, 37.869967 ] } },
{ "type": "Feature", "properties": { "osm_id": "2474764504", "code": 1003, "fclass": "village", "population": 0, "name": "송호리" }, "geometry": { "type": "Point", "coordinates": [ 126.1430702, 37.8548989 ] } },
{ "type": "Feature", "properties": { "osm_id": "2474771179", "code": 1003, "fclass": "village", "population": 0, "name": "오현리" }, "geometry": { "type": "Point", "coordinates": [ 126.121468, 37.9132328 ] } },
{ "type": "Feature", "properties": { "osm_id": "2474774721", "code": 1003, "fclass": "village", "population": 0, "name": "자양리" }, "geometry": { "type": "Point", "coordinates": [ 126.1421646, 37.9041692 ] } },
{ "type": "Feature", "properties": { "osm_id": "2474777979", "code": 1003, "fclass": "village", "population": 0, "name": "천태리" }, "geometry": { "type": "Point", "coordinates": [ 126.008095, 37.9352043 ] } },
{ "type": "Feature", "properties": { "osm_id": "2474778957", "code": 1003, "fclass": "village", "population": 0, "name": "풍천리" }, "geometry": { "type": "Point", "coordinates": [ 126.0618587, 37.9366391 ] } },
{ "type": "Feature", "properties": { "osm_id": "2474789542", "code": 1003, "fclass": "village", "population": 0, "name": "연강리" }, "geometry": { "type": "Point", "coordinates": [ 126.4253431, 37.9528403 ] } },
{ "type": "Feature", "properties": { "osm_id": "2474801748", "code": 1003, "fclass": "village", "population": 0, "name": "려현리" }, "geometry": { "type": "Point", "coordinates": [ 126.4375084, 38.0116926 ] } },
{ "type": "Feature", "properties": { "osm_id": "2474856795", "code": 1003, "fclass": "village", "population": 0, "name": "선죽동" }, "geometry": { "type": "Point", "coordinates": [ 126.5626694, 37.9771469 ] } },
{ "type": "Feature", "properties": { "osm_id": "2474864868", "code": 1004, "fclass": "hamlet", "population": 0, "name": "연릉리" }, "geometry": { "type": "Point", "coordinates": [ 126.508278, 37.971966 ] } },
{ "type": "Feature", "properties": { "osm_id": "2474867777", "code": 1003, "fclass": "village", "population": 0, "name": "광답리" }, "geometry": { "type": "Point", "coordinates": [ 126.5062661, 37.9343241 ] } },
{ "type": "Feature", "properties": { "osm_id": "2474873149", "code": 1003, "fclass": "village", "population": 0, "name": "고남리" }, "geometry": { "type": "Point", "coordinates": [ 126.5535984, 37.9446007 ] } },
{ "type": "Feature", "properties": { "osm_id": "2474906881", "code": 1003, "fclass": "village", "population": 0, "name": "령정리" }, "geometry": { "type": "Point", "coordinates": [ 126.5254407, 37.8139003 ] } },
{ "type": "Feature", "properties": { "osm_id": "2475363684", "code": 1003, "fclass": "village", "population": 0, "name": "룡흥동" }, "geometry": { "type": "Point", "coordinates": [ 126.5894305, 38.0016258 ] } },
{ "type": "Feature", "properties": { "osm_id": "2475415978", "code": 1003, "fclass": "village", "population": 0, "name": "남안동" }, "geometry": { "type": "Point", "coordinates": [ 126.5555911, 37.9687317 ] } },
{ "type": "Feature", "properties": { "osm_id": "2475419014", "code": 1003, "fclass": "village", "population": 0, "name": "만월동" }, "geometry": { "type": "Point", "coordinates": [ 126.5489052, 37.9752856 ] } },
{ "type": "Feature", "properties": { "osm_id": "2475419015", "code": 1003, "fclass": "village", "population": 0, "name": "송악동" }, "geometry": { "type": "Point", "coordinates": [ 126.5425573, 37.9834735 ] } },
{ "type": "Feature", "properties": { "osm_id": "2475420168", "code": 1003, "fclass": "village", "population": 0, "name": "고려동" }, "geometry": { "type": "Point", "coordinates": [ 126.5548231, 37.9892168 ] } },
{ "type": "Feature", "properties": { "osm_id": "2475423754", "code": 1003, "fclass": "village", "population": 0, "name": "부산동" }, "geometry": { "type": "Point", "coordinates": [ 126.5659235, 37.9867614 ] } },
{ "type": "Feature", "properties": { "osm_id": "2475429381", "code": 1003, "fclass": "village", "population": 0, "name": "운학1동" }, "geometry": { "type": "Point", "coordinates": [ 126.5736497, 37.9767937 ] } },
{ "type": "Feature", "properties": { "osm_id": "2475434650", "code": 1003, "fclass": "village", "population": 0, "name": "보선동" }, "geometry": { "type": "Point", "coordinates": [ 126.5692633, 37.9670119 ] } },
{ "type": "Feature", "properties": { "osm_id": "2475443584", "code": 1003, "fclass": "village", "population": 0, "name": "승전동" }, "geometry": { "type": "Point", "coordinates": [ 126.5404586, 37.9664753 ] } },
{ "type": "Feature", "properties": { "osm_id": "2475443585", "code": 1003, "fclass": "village", "population": 0, "name": "역전동" }, "geometry": { "type": "Point", "coordinates": [ 126.544442, 37.9691517 ] } },
{ "type": "Feature", "properties": { "osm_id": "2476303663", "code": 1003, "fclass": "village", "population": 0, "name": "자남동" }, "geometry": { "type": "Point", "coordinates": [ 126.5542925, 37.9763097 ] } },
{ "type": "Feature", "properties": { "osm_id": "2476314457", "code": 1003, "fclass": "village", "population": 0, "name": "방직동" }, "geometry": { "type": "Point", "coordinates": [ 126.5653294, 37.9761952 ] } },
{ "type": "Feature", "properties": { "osm_id": "2476321909", "code": 1003, "fclass": "village", "population": 0, "name": "전재리" }, "geometry": { "type": "Point", "coordinates": [ 126.6338085, 37.9800118 ] } },
{ "type": "Feature", "properties": { "osm_id": "2476324568", "code": 1003, "fclass": "village", "population": 0, "name": "삼거리" }, "geometry": { "type": "Point", "coordinates": [ 126.522884, 38.0362622 ] } },
{ "type": "Feature", "properties": { "osm_id": "2476346642", "code": 1003, "fclass": "village", "population": 0, "name": "박연리" }, "geometry": { "type": "Point", "coordinates": [ 126.5733347, 38.1057967 ] } },
{ "type": "Feature", "properties": { "osm_id": "2496440726", "code": 1003, "fclass": "village", "population": 0, "name": "동봉리" }, "geometry": { "type": "Point", "coordinates": [ 127.4137409, 39.8643345 ] } },
{ "type": "Feature", "properties": { "osm_id": "2497758958", "code": 1003, "fclass": "village", "population": 0, "name": "령신리" }, "geometry": { "type": "Point", "coordinates": [ 127.5457373, 38.9629477 ] } },
{ "type": "Feature", "properties": { "osm_id": "2502068065", "code": 1002, "fclass": "town", "population": 0, "name": "평강읍" }, "geometry": { "type": "Point", "coordinates": [ 127.291586, 38.4143831 ] } },
{ "type": "Feature", "properties": { "osm_id": "2506817155", "code": 1002, "fclass": "town", "population": 0, "name": "세포읍" }, "geometry": { "type": "Point", "coordinates": [ 127.3584812, 38.6426271 ] } },
{ "type": "Feature", "properties": { "osm_id": "2521015414", "code": 1002, "fclass": "town", "population": 0, "name": "김화읍" }, "geometry": { "type": "Point", "coordinates": [ 127.5945204, 38.4205701 ] } },
{ "type": "Feature", "properties": { "osm_id": "2523649881", "code": 1003, "fclass": "village", "population": 0, "name": "구읍리" }, "geometry": { "type": "Point", "coordinates": [ 128.317099500000012, 38.6674262 ] } },
{ "type": "Feature", "properties": { "osm_id": "2523747656", "code": 1002, "fclass": "town", "population": 0, "name": "통천읍" }, "geometry": { "type": "Point", "coordinates": [ 127.8909504, 38.9540273 ] } },
{ "type": "Feature", "properties": { "osm_id": "2572171839", "code": 1002, "fclass": "town", "population": 0, "name": "고산읍" }, "geometry": { "type": "Point", "coordinates": [ 127.42152, 38.8565363 ] } },
{ "type": "Feature", "properties": { "osm_id": "2925085946", "code": 1003, "fclass": "village", "population": 0, "name": "흑교리" }, "geometry": { "type": "Point", "coordinates": [ 125.7957312, 38.8011749 ] } },
{ "type": "Feature", "properties": { "osm_id": "2925093301", "code": 1003, "fclass": "village", "population": 0, "name": "침촌리" }, "geometry": { "type": "Point", "coordinates": [ 125.731326, 38.610515 ] } },
{ "type": "Feature", "properties": { "osm_id": "2926175978", "code": 1002, "fclass": "town", "population": 0, "name": "금야읍" }, "geometry": { "type": "Point", "coordinates": [ 127.2409686, 39.5496041 ] } },
{ "type": "Feature", "properties": { "osm_id": "2926179634", "code": 1003, "fclass": "village", "population": 0, "name": "인흥로동자구" }, "geometry": { "type": "Point", "coordinates": [ 127.3230574, 39.5192829 ] } },
{ "type": "Feature", "properties": { "osm_id": "2927431019", "code": 1003, "fclass": "village", "population": 0, "name": "강선동" }, "geometry": { "type": "Point", "coordinates": [ 125.5821069, 38.9352547 ] } },
{ "type": "Feature", "properties": { "osm_id": "2928081278", "code": 1002, "fclass": "town", "population": 0, "name": "함주읍" }, "geometry": { "type": "Point", "coordinates": [ 127.4334417, 39.8526174 ] } },
{ "type": "Feature", "properties": { "osm_id": "2928081280", "code": 1002, "fclass": "town", "population": 0, "name": "정평읍" }, "geometry": { "type": "Point", "coordinates": [ 127.3953879, 39.7875441 ] } },
{ "type": "Feature", "properties": { "osm_id": "2933800782", "code": 1003, "fclass": "village", "population": 0, "name": null }, "geometry": { "type": "Point", "coordinates": [ 126.5707174, 38.4936232 ] } },
{ "type": "Feature", "properties": { "osm_id": "2933800787", "code": 1002, "fclass": "town", "population": 0, "name": "신계읍" }, "geometry": { "type": "Point", "coordinates": [ 126.5309999, 38.506411 ] } },
{ "type": "Feature", "properties": { "osm_id": "2933800792", "code": 1003, "fclass": "village", "population": 0, "name": "마산리" }, "geometry": { "type": "Point", "coordinates": [ 126.5737872, 38.521529 ] } },
{ "type": "Feature", "properties": { "osm_id": "2933807903", "code": 1004, "fclass": "hamlet", "population": 0, "name": null }, "geometry": { "type": "Point", "coordinates": [ 126.5378705, 38.5866013 ] } },
{ "type": "Feature", "properties": { "osm_id": "2933807912", "code": 1003, "fclass": "village", "population": 0, "name": null }, "geometry": { "type": "Point", "coordinates": [ 126.3637243, 38.6240385 ] } },
{ "type": "Feature", "properties": { "osm_id": "2933807950", "code": 1003, "fclass": "village", "population": 0, "name": "산북리" }, "geometry": { "type": "Point", "coordinates": [ 126.4720991, 38.6587612 ] } },
{ "type": "Feature", "properties": { "osm_id": "2933807956", "code": 1004, "fclass": "hamlet", "population": 0, "name": null }, "geometry": { "type": "Point", "coordinates": [ 126.4125945, 38.6591814 ] } },
{ "type": "Feature", "properties": { "osm_id": "2933807966", "code": 1004, "fclass": "hamlet", "population": 0, "name": null }, "geometry": { "type": "Point", "coordinates": [ 126.3940131, 38.6619185 ] } },
{ "type": "Feature", "properties": { "osm_id": "2933807970", "code": 1004, "fclass": "hamlet", "population": 0, "name": null }, "geometry": { "type": "Point", "coordinates": [ 126.385409, 38.6626908 ] } },
{ "type": "Feature", "properties": { "osm_id": "2933807983", "code": 1004, "fclass": "hamlet", "population": 0, "name": null }, "geometry": { "type": "Point", "coordinates": [ 126.3060407, 38.6645467 ] } },
{ "type": "Feature", "properties": { "osm_id": "2933807987", "code": 1004, "fclass": "hamlet", "population": 0, "name": null }, "geometry": { "type": "Point", "coordinates": [ 126.3152758, 38.6656971 ] } },
{ "type": "Feature", "properties": { "osm_id": "2933808120", "code": 1004, "fclass": "hamlet", "population": 0, "name": null }, "geometry": { "type": "Point", "coordinates": [ 126.2763454, 38.6706034 ] } },
{ "type": "Feature", "properties": { "osm_id": "2933808122", "code": 1004, "fclass": "hamlet", "population": 0, "name": null }, "geometry": { "type": "Point", "coordinates": [ 126.3761454, 38.6707683 ] } },
{ "type": "Feature", "properties": { "osm_id": "2933808186", "code": 1003, "fclass": "village", "population": 0, "name": "룡포리" }, "geometry": { "type": "Point", "coordinates": [ 126.3990917, 38.6737967 ] } },
{ "type": "Feature", "properties": { "osm_id": "2933808191", "code": 1004, "fclass": "hamlet", "population": 0, "name": null }, "geometry": { "type": "Point", "coordinates": [ 126.389622, 38.6746785 ] } },
{ "type": "Feature", "properties": { "osm_id": "2933808346", "code": 1004, "fclass": "hamlet", "population": 0, "name": null }, "geometry": { "type": "Point", "coordinates": [ 126.4016943, 38.6794518 ] } },
{ "type": "Feature", "properties": { "osm_id": "2933808366", "code": 1004, "fclass": "hamlet", "population": 0, "name": null }, "geometry": { "type": "Point", "coordinates": [ 126.4139409, 38.6829747 ] } },
{ "type": "Feature", "properties": { "osm_id": "2933808367", "code": 1004, "fclass": "hamlet", "population": 0, "name": null }, "geometry": { "type": "Point", "coordinates": [ 126.2671158, 38.6830217 ] } },
{ "type": "Feature", "properties": { "osm_id": "2933808384", "code": 1003, "fclass": "village", "population": 0, "name": "룡현리" }, "geometry": { "type": "Point", "coordinates": [ 126.5172898, 38.6852979 ] } },
{ "type": "Feature", "properties": { "osm_id": "2933808400", "code": 1003, "fclass": "village", "population": 0, "name": "신대리" }, "geometry": { "type": "Point", "coordinates": [ 126.2457549, 38.6903485 ] } },
{ "type": "Feature", "properties": { "osm_id": "2933808707", "code": 1004, "fclass": "hamlet", "population": 0, "name": null }, "geometry": { "type": "Point", "coordinates": [ 126.3742282, 38.7034323 ] } },
{ "type": "Feature", "properties": { "osm_id": "2933808738", "code": 1003, "fclass": "village", "population": 0, "name": "석담리" }, "geometry": { "type": "Point", "coordinates": [ 126.361191, 38.7050369 ] } },
{ "type": "Feature", "properties": { "osm_id": "2933808755", "code": 1004, "fclass": "hamlet", "population": 0, "name": null }, "geometry": { "type": "Point", "coordinates": [ 126.3811219, 38.7086623 ] } },
{ "type": "Feature", "properties": { "osm_id": "2933808795", "code": 1004, "fclass": "hamlet", "population": 0, "name": null }, "geometry": { "type": "Point", "coordinates": [ 126.3509925, 38.7114312 ] } },
{ "type": "Feature", "properties": { "osm_id": "2933808796", "code": 1004, "fclass": "hamlet", "population": 0, "name": null }, "geometry": { "type": "Point", "coordinates": [ 126.3438786, 38.7114458 ] } },
{ "type": "Feature", "properties": { "osm_id": "2933808798", "code": 1004, "fclass": "hamlet", "population": 0, "name": null }, "geometry": { "type": "Point", "coordinates": [ 126.3573678, 38.7117495 ] } },
{ "type": "Feature", "properties": { "osm_id": "2933808823", "code": 1004, "fclass": "hamlet", "population": 0, "name": null }, "geometry": { "type": "Point", "coordinates": [ 126.3526872, 38.7184439 ] } },
{ "type": "Feature", "properties": { "osm_id": "2933808829", "code": 1004, "fclass": "hamlet", "population": 0, "name": null }, "geometry": { "type": "Point", "coordinates": [ 126.3494874, 38.7199543 ] } },
{ "type": "Feature", "properties": { "osm_id": "2933808839", "code": 1004, "fclass": "hamlet", "population": 0, "name": "면화동" }, "geometry": { "type": "Point", "coordinates": [ 126.3713262, 38.7430818 ] } },
{ "type": "Feature", "properties": { "osm_id": "2933808846", "code": 1004, "fclass": "hamlet", "population": 0, "name": "제청골" }, "geometry": { "type": "Point", "coordinates": [ 126.3754489, 38.7556442 ] } },
{ "type": "Feature", "properties": { "osm_id": "2937717749", "code": 1003, "fclass": "village", "population": 0, "name": "남하리" }, "geometry": { "type": "Point", "coordinates": [ 125.4296708, 40.5540422 ] } },
{ "type": "Feature", "properties": { "osm_id": "2937719137", "code": 1003, "fclass": "village", "population": 0, "name": "마전리" }, "geometry": { "type": "Point", "coordinates": [ 125.3987059, 40.6117275 ] } },
{ "type": "Feature", "properties": { "osm_id": "2937719138", "code": 1002, "fclass": "town", "population": 0, "name": "벽동읍" }, "geometry": { "type": "Point", "coordinates": [ 125.3302885, 40.587952 ] } },
{ "type": "Feature", "properties": { "osm_id": "2937719139", "code": 1003, "fclass": "village", "population": 0, "name": "송이리" }, "geometry": { "type": "Point", "coordinates": [ 125.3323877, 40.6063454 ] } },
{ "type": "Feature", "properties": { "osm_id": "2937722573", "code": 1003, "fclass": "village", "population": 0, "name": "동주리" }, "geometry": { "type": "Point", "coordinates": [ 125.4363139, 40.6252214 ] } },
{ "type": "Feature", "properties": { "osm_id": "2937728222", "code": 1003, "fclass": "village", "population": 0, "name": "남서리" }, "geometry": { "type": "Point", "coordinates": [ 125.4356165, 40.5814709 ] } },
{ "type": "Feature", "properties": { "osm_id": "2937730454", "code": 1003, "fclass": "village", "population": 0, "name": "대동리" }, "geometry": { "type": "Point", "coordinates": [ 125.4524886, 40.6140825 ] } },
{ "type": "Feature", "properties": { "osm_id": "2937733543", "code": 1003, "fclass": "village", "population": 0, "name": "동하리" }, "geometry": { "type": "Point", "coordinates": [ 125.4181417, 40.6519647 ] } },
{ "type": "Feature", "properties": { "osm_id": "2937830372", "code": 1003, "fclass": "village", "population": 0, "name": "문암리" }, "geometry": { "type": "Point", "coordinates": [ 125.6146677, 38.8705885 ] } },
{ "type": "Feature", "properties": { "osm_id": "2937834809", "code": 1003, "fclass": "village", "population": 0, "name": "고읍리" }, "geometry": { "type": "Point", "coordinates": [ 125.6096037, 38.885823 ] } },
{ "type": "Feature", "properties": { "osm_id": "2939056982", "code": 1002, "fclass": "town", "population": 0, "name": "은천읍" }, "geometry": { "type": "Point", "coordinates": [ 125.4300093, 38.5667565 ] } },
{ "type": "Feature", "properties": { "osm_id": "2939062118", "code": 1002, "fclass": "town", "population": 0, "name": "안악읍" }, "geometry": { "type": "Point", "coordinates": [ 125.492778, 38.5080258 ] } },
{ "type": "Feature", "properties": { "osm_id": "2939066636", "code": 1002, "fclass": "town", "population": 0, "name": "장연읍" }, "geometry": { "type": "Point", "coordinates": [ 125.0959314, 38.2529604 ] } },
{ "type": "Feature", "properties": { "osm_id": "2939067622", "code": 1002, "fclass": "town", "population": 0, "name": "청단읍" }, "geometry": { "type": "Point", "coordinates": [ 125.9400632, 37.9751605 ] } },
{ "type": "Feature", "properties": { "osm_id": "2939076417", "code": 1002, "fclass": "town", "population": 0, "name": "강령읍" }, "geometry": { "type": "Point", "coordinates": [ 125.5114603, 37.9075595 ] } },
{ "type": "Feature", "properties": { "osm_id": "2939088928", "code": 1002, "fclass": "town", "population": 0, "name": "배천읍" }, "geometry": { "type": "Point", "coordinates": [ 126.3025262, 37.9920351 ] } },
{ "type": "Feature", "properties": { "osm_id": "2939859259", "code": 1002, "fclass": "town", "population": 0, "name": "중화읍" }, "geometry": { "type": "Point", "coordinates": [ 125.8014874, 38.8626904 ] } },
{ "type": "Feature", "properties": { "osm_id": "2940501100", "code": 1002, "fclass": "town", "population": 0, "name": "강동읍" }, "geometry": { "type": "Point", "coordinates": [ 126.0995107, 39.1416596 ] } },
{ "type": "Feature", "properties": { "osm_id": "2943724199", "code": 1003, "fclass": "village", "population": 0, "name": "풍서리" }, "geometry": { "type": "Point", "coordinates": [ 129.928057599999988, 43.0038265 ] } },
{ "type": "Feature", "properties": { "osm_id": "2996556414", "code": 1003, "fclass": "village", "population": 0, "name": "서북리" }, "geometry": { "type": "Point", "coordinates": [ 124.3966366, 40.0186852 ] } },
{ "type": "Feature", "properties": { "osm_id": "2996556426", "code": 1004, "fclass": "hamlet", "population": 0, "name": "신평동" }, "geometry": { "type": "Point", "coordinates": [ 124.3818783, 40.0447557 ] } },
{ "type": "Feature", "properties": { "osm_id": "2996556427", "code": 1004, "fclass": "hamlet", "population": 0, "name": "덕대서곡" }, "geometry": { "type": "Point", "coordinates": [ 124.3834544, 40.0515345 ] } },
{ "type": "Feature", "properties": { "osm_id": "2996556428", "code": 1003, "fclass": "village", "population": 0, "name": "류초리" }, "geometry": { "type": "Point", "coordinates": [ 124.3505705, 40.0549486 ] } },
{ "type": "Feature", "properties": { "osm_id": "2996556429", "code": 1004, "fclass": "hamlet", "population": 0, "name": "동초동" }, "geometry": { "type": "Point", "coordinates": [ 124.3856549, 40.067571 ] } },
{ "type": "Feature", "properties": { "osm_id": "2996556430", "code": 1004, "fclass": "hamlet", "population": 0, "name": "화평리" }, "geometry": { "type": "Point", "coordinates": [ 124.3817664, 40.0671949 ] } },
{ "type": "Feature", "properties": { "osm_id": "2996556431", "code": 1004, "fclass": "hamlet", "population": 0, "name": "유서골" }, "geometry": { "type": "Point", "coordinates": [ 124.3506954, 40.0716867 ] } },
{ "type": "Feature", "properties": { "osm_id": "2996556432", "code": 1004, "fclass": "hamlet", "population": 0, "name": "신서곡" }, "geometry": { "type": "Point", "coordinates": [ 124.3787193, 40.0732325 ] } },
{ "type": "Feature", "properties": { "osm_id": "2996556935", "code": 1004, "fclass": "hamlet", "population": 0, "name": null }, "geometry": { "type": "Point", "coordinates": [ 124.4344386, 40.1007463 ] } },
{ "type": "Feature", "properties": { "osm_id": "2996556941", "code": 1003, "fclass": "village", "population": 0, "name": "신도동" }, "geometry": { "type": "Point", "coordinates": [ 124.4416769, 40.1203702 ] } },
{ "type": "Feature", "properties": { "osm_id": "2996556946", "code": 1003, "fclass": "village", "population": 0, "name": "하단리" }, "geometry": { "type": "Point", "coordinates": [ 124.4114995, 40.1343939 ] } },
{ "type": "Feature", "properties": { "osm_id": "2996556947", "code": 1004, "fclass": "hamlet", "population": 0, "name": "청물리" }, "geometry": { "type": "Point", "coordinates": [ 124.4452647, 40.1381118 ] } },
{ "type": "Feature", "properties": { "osm_id": "2996556948", "code": 1004, "fclass": "hamlet", "population": 0, "name": "북상리" }, "geometry": { "type": "Point", "coordinates": [ 124.4332932, 40.139155 ] } },
{ "type": "Feature", "properties": { "osm_id": "2996556949", "code": 1004, "fclass": "hamlet", "population": 0, "name": "동하리" }, "geometry": { "type": "Point", "coordinates": [ 124.4547181, 40.1400869 ] } },
{ "type": "Feature", "properties": { "osm_id": "3029772622", "code": 1003, "fclass": "village", "population": 0, "name": "子洞 자동" }, "geometry": { "type": "Point", "coordinates": [ 129.75143940000001, 42.7119767 ] } },
{ "type": "Feature", "properties": { "osm_id": "3029772630", "code": 1003, "fclass": "village", "population": 0, "name": "镇子同村 진자동촌" }, "geometry": { "type": "Point", "coordinates": [ 129.755077699999987, 42.7211771 ] } },
{ "type": "Feature", "properties": { "osm_id": "3029782514", "code": 1002, "fclass": "town", "population": 0, "name": "苇沙河镇" }, "geometry": { "type": "Point", "coordinates": [ 126.7466521, 41.7365799 ] } },
{ "type": "Feature", "properties": { "osm_id": "3049340595", "code": 1002, "fclass": "town", "population": 0, "name": "판교읍" }, "geometry": { "type": "Point", "coordinates": [ 127.0004969, 38.7525441 ] } },
{ "type": "Feature", "properties": { "osm_id": "3049378540", "code": 1003, "fclass": "village", "population": 0, "name": "상린원리" }, "geometry": { "type": "Point", "coordinates": [ 127.0595462, 38.7665363 ] } },
{ "type": "Feature", "properties": { "osm_id": "3049409812", "code": 1003, "fclass": "village", "population": 0, "name": "구당리" }, "geometry": { "type": "Point", "coordinates": [ 127.0315133, 38.8036337 ] } },
{ "type": "Feature", "properties": { "osm_id": "3049409821", "code": 1003, "fclass": "village", "population": 0, "name": "경도리" }, "geometry": { "type": "Point", "coordinates": [ 127.0000874, 38.7678662 ] } },
{ "type": "Feature", "properties": { "osm_id": "3049409822", "code": 1003, "fclass": "village", "population": 0, "name": "사동리" }, "geometry": { "type": "Point", "coordinates": [ 127.0525148, 38.7091261 ] } },
{ "type": "Feature", "properties": { "osm_id": "3057366930", "code": 1003, "fclass": "village", "population": 0, "name": "구연리" }, "geometry": { "type": "Point", "coordinates": [ 126.0270582, 38.4641476 ] } },
{ "type": "Feature", "properties": { "osm_id": "3057366931", "code": 1003, "fclass": "village", "population": 0, "name": "장산리" }, "geometry": { "type": "Point", "coordinates": [ 125.5597233, 39.0789796 ] } },
{ "type": "Feature", "properties": { "osm_id": "3057366932", "code": 1003, "fclass": "village", "population": 0, "name": "서제리" }, "geometry": { "type": "Point", "coordinates": [ 125.584605, 39.1361089 ] } },
{ "type": "Feature", "properties": { "osm_id": "3057367133", "code": 1003, "fclass": "village", "population": 0, "name": "원화리" }, "geometry": { "type": "Point", "coordinates": [ 125.6630733, 39.2507465 ] } },
{ "type": "Feature", "properties": { "osm_id": "3057367135", "code": 1003, "fclass": "village", "population": 0, "name": "월일리" }, "geometry": { "type": "Point", "coordinates": [ 125.5793375, 39.2847746 ] } },
{ "type": "Feature", "properties": { "osm_id": "3057367136", "code": 1003, "fclass": "village", "population": 0, "name": "룡림리" }, "geometry": { "type": "Point", "coordinates": [ 125.45984, 39.4746179 ] } },
{ "type": "Feature", "properties": { "osm_id": "3057367137", "code": 1003, "fclass": "village", "population": 0, "name": "립석리" }, "geometry": { "type": "Point", "coordinates": [ 125.4971535, 39.4757942 ] } },
{ "type": "Feature", "properties": { "osm_id": "3057367139", "code": 1003, "fclass": "village", "population": 0, "name": "대풍리" }, "geometry": { "type": "Point", "coordinates": [ 125.420399, 39.2843798 ] } },
{ "type": "Feature", "properties": { "osm_id": "3057367140", "code": 1002, "fclass": "town", "population": 0, "name": "평원읍" }, "geometry": { "type": "Point", "coordinates": [ 125.6036094, 39.3054149 ] } },
{ "type": "Feature", "properties": { "osm_id": "3069808195", "code": 1003, "fclass": "village", "population": 0, "name": "蒿子沟" }, "geometry": { "type": "Point", "coordinates": [ 126.512963, 41.359378 ] } },
{ "type": "Feature", "properties": { "osm_id": "3069808196", "code": 1003, "fclass": "village", "population": 0, "name": "望江村" }, "geometry": { "type": "Point", "coordinates": [ 126.4153788, 41.3346392 ] } },
{ "type": "Feature", "properties": { "osm_id": "3069808197", "code": 1003, "fclass": "village", "population": 0, "name": "下套村" }, "geometry": { "type": "Point", "coordinates": [ 126.444071, 41.358202 ] } },
{ "type": "Feature", "properties": { "osm_id": "3069808198", "code": 1003, "fclass": "village", "population": 0, "name": "沿泡" }, "geometry": { "type": "Point", "coordinates": [ 126.4635332, 41.3631499 ] } },
{ "type": "Feature", "properties": { "osm_id": "3150211185", "code": 1003, "fclass": "village", "population": 0, "name": "尾岛" }, "geometry": { "type": "Point", "coordinates": [ 129.774835599999989, 42.7630507 ] } },
{ "type": "Feature", "properties": { "osm_id": "3150211191", "code": 1050, "fclass": "locality", "population": 0, "name": "尾沙洲 미사주" }, "geometry": { "type": "Point", "coordinates": [ 129.7791509, 42.7697977 ] } },
{ "type": "Feature", "properties": { "osm_id": "3170054418", "code": 1002, "fclass": "town", "population": 0, "name": "崇善镇 숭선진" }, "geometry": { "type": "Point", "coordinates": [ 128.997837800000013, 42.0932176 ] } },
{ "type": "Feature", "properties": { "osm_id": "3171552780", "code": 1002, "fclass": "town", "population": 0, "name": "白金乡 백금향" }, "geometry": { "type": "Point", "coordinates": [ 129.404370300000011, 42.4509075 ] } },
{ "type": "Feature", "properties": { "osm_id": "3193313963", "code": 1003, "fclass": "village", "population": 0, "name": "남양로동자구" }, "geometry": { "type": "Point", "coordinates": [ 125.447237, 39.3439753 ] } },
{ "type": "Feature", "properties": { "osm_id": "3235875417", "code": 1003, "fclass": "village", "population": 0, "name": "인흥리" }, "geometry": { "type": "Point", "coordinates": [ 125.4637067, 39.5222262 ] } },
{ "type": "Feature", "properties": { "osm_id": "3235875418", "code": 1003, "fclass": "village", "population": 0, "name": "룡북리" }, "geometry": { "type": "Point", "coordinates": [ 125.4556029, 39.4985453 ] } },
{ "type": "Feature", "properties": { "osm_id": "3235875419", "code": 1003, "fclass": "village", "population": 0, "name": "룡오리" }, "geometry": { "type": "Point", "coordinates": [ 125.4773241, 39.5499253 ] } },
{ "type": "Feature", "properties": { "osm_id": "3235875420", "code": 1003, "fclass": "village", "population": 0, "name": "신리" }, "geometry": { "type": "Point", "coordinates": [ 125.4639865, 39.4964372 ] } },
{ "type": "Feature", "properties": { "osm_id": "3235875421", "code": 1003, "fclass": "village", "population": 0, "name": "서호로동자구" }, "geometry": { "type": "Point", "coordinates": [ 125.3939231, 39.495914 ] } },
{ "type": "Feature", "properties": { "osm_id": "3235875422", "code": 1003, "fclass": "village", "population": 0, "name": "동림리" }, "geometry": { "type": "Point", "coordinates": [ 125.4396465, 39.540298 ] } },
{ "type": "Feature", "properties": { "osm_id": "3269731611", "code": 1004, "fclass": "hamlet", "population": 0, "name": null }, "geometry": { "type": "Point", "coordinates": [ 126.6538224, 37.8340199 ] } },
{ "type": "Feature", "properties": { "osm_id": "3394739034", "code": 1003, "fclass": "village", "population": 0, "name": "산수리" }, "geometry": { "type": "Point", "coordinates": [ 127.49676, 40.7921783 ] } },
{ "type": "Feature", "properties": { "osm_id": "3394742594", "code": 1004, "fclass": "hamlet", "population": 0, "name": null }, "geometry": { "type": "Point", "coordinates": [ 127.4933265, 40.8158626 ] } },
{ "type": "Feature", "properties": { "osm_id": "3394742595", "code": 1004, "fclass": "hamlet", "population": 0, "name": null }, "geometry": { "type": "Point", "coordinates": [ 127.4743996, 40.85676 ] } },
{ "type": "Feature", "properties": { "osm_id": "3394742596", "code": 1004, "fclass": "hamlet", "population": 0, "name": null }, "geometry": { "type": "Point", "coordinates": [ 127.4595863, 40.8646269 ] } },
{ "type": "Feature", "properties": { "osm_id": "3394742597", "code": 1004, "fclass": "hamlet", "population": 0, "name": null }, "geometry": { "type": "Point", "coordinates": [ 127.4528486, 40.8749792 ] } },
{ "type": "Feature", "properties": { "osm_id": "3394742598", "code": 1004, "fclass": "hamlet", "population": 0, "name": null }, "geometry": { "type": "Point", "coordinates": [ 127.452501, 40.9053956 ] } },
{ "type": "Feature", "properties": { "osm_id": "3394742599", "code": 1004, "fclass": "hamlet", "population": 0, "name": null }, "geometry": { "type": "Point", "coordinates": [ 127.4496896, 40.9090671 ] } },
{ "type": "Feature", "properties": { "osm_id": "3394742600", "code": 1004, "fclass": "hamlet", "population": 0, "name": null }, "geometry": { "type": "Point", "coordinates": [ 127.4624176, 40.91375 ] } },
{ "type": "Feature", "properties": { "osm_id": "3394742601", "code": 1004, "fclass": "hamlet", "population": 0, "name": null }, "geometry": { "type": "Point", "coordinates": [ 127.4837392, 40.9427742 ] } },
{ "type": "Feature", "properties": { "osm_id": "3394742602", "code": 1003, "fclass": "village", "population": 0, "name": "개화리" }, "geometry": { "type": "Point", "coordinates": [ 127.4792166, 40.956847 ] } },
{ "type": "Feature", "properties": { "osm_id": "3394742603", "code": 1004, "fclass": "hamlet", "population": 0, "name": null }, "geometry": { "type": "Point", "coordinates": [ 127.4984622, 40.9873379 ] } },
{ "type": "Feature", "properties": { "osm_id": "3396913885", "code": 1003, "fclass": "village", "population": 0, "name": "룡하로동자구" }, "geometry": { "type": "Point", "coordinates": [ 127.503642, 41.2762034 ] } },
{ "type": "Feature", "properties": { "osm_id": "3417101128", "code": 1003, "fclass": "village", "population": 0, "name": "马市村" }, "geometry": { "type": "Point", "coordinates": [ 124.4957737, 40.1991826 ] } },
{ "type": "Feature", "properties": { "osm_id": "3417103072", "code": 1003, "fclass": "village", "population": 0, "name": "安平河" }, "geometry": { "type": "Point", "coordinates": [ 124.6252707, 40.2972845 ] } },
{ "type": "Feature", "properties": { "osm_id": "3417328814", "code": 1003, "fclass": "village", "population": 0, "name": "下河口村" }, "geometry": { "type": "Point", "coordinates": [ 124.7918992, 40.4082357 ] } },
{ "type": "Feature", "properties": { "osm_id": "3446663928", "code": 1003, "fclass": "village", "population": 0, "name": "동신리" }, "geometry": { "type": "Point", "coordinates": [ 124.4168232, 40.0233021 ] } },
{ "type": "Feature", "properties": { "osm_id": "3447065505", "code": 1004, "fclass": "hamlet", "population": 0, "name": "서상리" }, "geometry": { "type": "Point", "coordinates": [ 124.4489066, 40.1506673 ] } },
{ "type": "Feature", "properties": { "osm_id": "3447065506", "code": 1004, "fclass": "hamlet", "population": 0, "name": "서하리" }, "geometry": { "type": "Point", "coordinates": [ 124.4417481, 40.1435396 ] } },
{ "type": "Feature", "properties": { "osm_id": "3448557202", "code": 1004, "fclass": "hamlet", "population": 0, "name": "덕대동곡" }, "geometry": { "type": "Point", "coordinates": [ 124.381119, 40.0589332 ] } },
{ "type": "Feature", "properties": { "osm_id": "3448557203", "code": 1003, "fclass": "village", "population": 0, "name": "선상동" }, "geometry": { "type": "Point", "coordinates": [ 124.4654051, 40.1095382 ] } },
{ "type": "Feature", "properties": { "osm_id": "3448557204", "code": 1003, "fclass": "village", "population": 0, "name": "성서리" }, "geometry": { "type": "Point", "coordinates": [ 124.3853, 40.0469269 ] } },
{ "type": "Feature", "properties": { "osm_id": "3448557205", "code": 1004, "fclass": "hamlet", "population": 0, "name": "유방골" }, "geometry": { "type": "Point", "coordinates": [ 124.3702481, 40.0816707 ] } },
{ "type": "Feature", "properties": { "osm_id": "3448557206", "code": 1050, "fclass": "locality", "population": 0, "name": "정심동" }, "geometry": { "type": "Point", "coordinates": [ 124.402346, 40.0436618 ] } },
{ "type": "Feature", "properties": { "osm_id": "3498018508", "code": 1002, "fclass": "town", "population": 2018, "name": "密江乡 밀강향" }, "geometry": { "type": "Point", "coordinates": [ 130.1374839, 42.9932966 ] } },
{ "type": "Feature", "properties": { "osm_id": "3514789821", "code": 1003, "fclass": "village", "population": 0, "name": "마정리" }, "geometry": { "type": "Point", "coordinates": [ 125.6658187, 38.9215359 ] } },
{ "type": "Feature", "properties": { "osm_id": "3514797249", "code": 1003, "fclass": "village", "population": 0, "name": "당곡리" }, "geometry": { "type": "Point", "coordinates": [ 125.6991739, 38.9017708 ] } },
{ "type": "Feature", "properties": { "osm_id": "3514800889", "code": 1003, "fclass": "village", "population": 0, "name": "보성리" }, "geometry": { "type": "Point", "coordinates": [ 125.6929938, 38.9418037 ] } },
{ "type": "Feature", "properties": { "osm_id": "3514803463", "code": 1003, "fclass": "village", "population": 0, "name": "송남리" }, "geometry": { "type": "Point", "coordinates": [ 125.6638124, 38.9396532 ] } },
{ "type": "Feature", "properties": { "osm_id": "3514807333", "code": 1003, "fclass": "village", "population": 0, "name": "룡호리" }, "geometry": { "type": "Point", "coordinates": [ 125.638049, 38.9473875 ] } },
{ "type": "Feature", "properties": { "osm_id": "3514814196", "code": 1003, "fclass": "village", "population": 0, "name": "남사리" }, "geometry": { "type": "Point", "coordinates": [ 125.7177754, 38.9504002 ] } },
{ "type": "Feature", "properties": { "osm_id": "3514971167", "code": 1003, "fclass": "village", "population": 0, "name": "류포리" }, "geometry": { "type": "Point", "coordinates": [ 125.5726026, 38.8224131 ] } },
{ "type": "Feature", "properties": { "osm_id": "3514985382", "code": 1003, "fclass": "village", "population": 0, "name": "석호리" }, "geometry": { "type": "Point", "coordinates": [ 125.5843642, 38.8194089 ] } },
{ "type": "Feature", "properties": { "osm_id": "3515027760", "code": 1003, "fclass": "village", "population": 0, "name": "룡곡리" }, "geometry": { "type": "Point", "coordinates": [ 125.6303616, 38.8144701 ] } },
{ "type": "Feature", "properties": { "osm_id": "3515027761", "code": 1003, "fclass": "village", "population": 0, "name": "신정리" }, "geometry": { "type": "Point", "coordinates": [ 125.6323055, 38.8353476 ] } },
{ "type": "Feature", "properties": { "osm_id": "3515047022", "code": 1003, "fclass": "village", "population": 0, "name": "간천리" }, "geometry": { "type": "Point", "coordinates": [ 125.5471242, 38.855919 ] } },
{ "type": "Feature", "properties": { "osm_id": "3515047023", "code": 1003, "fclass": "village", "population": 0, "name": "신흥리" }, "geometry": { "type": "Point", "coordinates": [ 125.6046255, 38.8276605 ] } },
{ "type": "Feature", "properties": { "osm_id": "3515055136", "code": 1003, "fclass": "village", "population": 0, "name": "이산리" }, "geometry": { "type": "Point", "coordinates": [ 125.583917, 38.8535643 ] } },
{ "type": "Feature", "properties": { "osm_id": "3515055137", "code": 1003, "fclass": "village", "population": 0, "name": "영진리" }, "geometry": { "type": "Point", "coordinates": [ 125.5958198, 38.8660521 ] } },
{ "type": "Feature", "properties": { "osm_id": "3515065481", "code": 1003, "fclass": "village", "population": 0, "name": "고천리" }, "geometry": { "type": "Point", "coordinates": [ 125.6758736, 38.8442484 ] } },
{ "type": "Feature", "properties": { "osm_id": "3515065482", "code": 1003, "fclass": "village", "population": 0, "name": "상암리" }, "geometry": { "type": "Point", "coordinates": [ 125.66939, 38.8658016 ] } },
{ "type": "Feature", "properties": { "osm_id": "3515088214", "code": 1003, "fclass": "village", "population": 0, "name": "룡포리" }, "geometry": { "type": "Point", "coordinates": [ 125.6772909, 38.8778762 ] } },
{ "type": "Feature", "properties": { "osm_id": "3515088215", "code": 1003, "fclass": "village", "population": 0, "name": "동정리" }, "geometry": { "type": "Point", "coordinates": [ 125.6417369, 38.8864311 ] } },
{ "type": "Feature", "properties": { "osm_id": "3515096393", "code": 1003, "fclass": "village", "population": 0, "name": "장교리" }, "geometry": { "type": "Point", "coordinates": [ 125.7041311, 38.9225024 ] } },
{ "type": "Feature", "properties": { "osm_id": "3515134636", "code": 1004, "fclass": "hamlet", "population": 0, "name": "황촌" }, "geometry": { "type": "Point", "coordinates": [ 125.6003041, 38.8012929 ] } },
{ "type": "Feature", "properties": { "osm_id": "3515171099", "code": 1004, "fclass": "hamlet", "population": 0, "name": "철골" }, "geometry": { "type": "Point", "coordinates": [ 125.5561266, 38.8357396 ] } },
{ "type": "Feature", "properties": { "osm_id": "3515183869", "code": 1004, "fclass": "hamlet", "population": 0, "name": "동천" }, "geometry": { "type": "Point", "coordinates": [ 125.532824, 38.8536609 ] } },
{ "type": "Feature", "properties": { "osm_id": "3516396927", "code": 1003, "fclass": "village", "population": 0, "name": "창평로동자구" }, "geometry": { "type": "Point", "coordinates": [ 126.6800553, 40.8103233 ] } },
{ "type": "Feature", "properties": { "osm_id": "3516396957", "code": 1003, "fclass": "village", "population": 0, "name": "백자리" }, "geometry": { "type": "Point", "coordinates": [ 126.6911761, 40.7849807 ] } },
{ "type": "Feature", "properties": { "osm_id": "3516396959", "code": 1003, "fclass": "village", "population": 0, "name": "외중로동자구" }, "geometry": { "type": "Point", "coordinates": [ 126.6303006, 40.7177046 ] } },
{ "type": "Feature", "properties": { "osm_id": "3517229134", "code": 1002, "fclass": "town", "population": 0, "name": "삭주읍" }, "geometry": { "type": "Point", "coordinates": [ 125.0470938, 40.3873206 ] } },
{ "type": "Feature", "properties": { "osm_id": "3517236222", "code": 1003, "fclass": "village", "population": 0, "name": "금부리" }, "geometry": { "type": "Point", "coordinates": [ 125.0616307, 40.4083628 ] } },
{ "type": "Feature", "properties": { "osm_id": "3517238203", "code": 1003, "fclass": "village", "population": 0, "name": "수풍로동자구" }, "geometry": { "type": "Point", "coordinates": [ 124.9475992, 40.4483609 ] } },
{ "type": "Feature", "properties": { "osm_id": "3517246275", "code": 1003, "fclass": "village", "population": 0, "name": "신풍리" }, "geometry": { "type": "Point", "coordinates": [ 124.9479317, 40.4336561 ] } },
{ "type": "Feature", "properties": { "osm_id": "3517247759", "code": 1003, "fclass": "village", "population": 0, "name": "연삼리" }, "geometry": { "type": "Point", "coordinates": [ 125.0076169, 40.3968456 ] } },
{ "type": "Feature", "properties": { "osm_id": "3517248761", "code": 1003, "fclass": "village", "population": 0, "name": "신서리" }, "geometry": { "type": "Point", "coordinates": [ 125.0325011, 40.3829955 ] } },
{ "type": "Feature", "properties": { "osm_id": "3517391817", "code": 1002, "fclass": "town", "population": 0, "name": "문덕읍" }, "geometry": { "type": "Point", "coordinates": [ 125.595315, 39.5000631 ] } },
{ "type": "Feature", "properties": { "osm_id": "3519905589", "code": 1003, "fclass": "village", "population": 0, "name": "풍성리" }, "geometry": { "type": "Point", "coordinates": [ 127.2791822, 39.5429659 ] } },
{ "type": "Feature", "properties": { "osm_id": "3520121008", "code": 1003, "fclass": "village", "population": 0, "name": "금산리" }, "geometry": { "type": "Point", "coordinates": [ 125.7614034, 38.8749758 ] } },
{ "type": "Feature", "properties": { "osm_id": "3520121009", "code": 1003, "fclass": "village", "population": 0, "name": "동산리" }, "geometry": { "type": "Point", "coordinates": [ 125.7365518, 38.9096309 ] } },
{ "type": "Feature", "properties": { "osm_id": "3673820734", "code": 1003, "fclass": "village", "population": 0, "name": "다사로동자구" }, "geometry": { "type": "Point", "coordinates": [ 124.4239116, 39.8391908 ] } },
{ "type": "Feature", "properties": { "osm_id": "3676120476", "code": 1003, "fclass": "village", "population": 0, "name": "인광리" }, "geometry": { "type": "Point", "coordinates": [ 124.6162886, 39.8909992 ] } },
{ "type": "Feature", "properties": { "osm_id": "3676121468", "code": 1003, "fclass": "village", "population": 0, "name": "향봉리" }, "geometry": { "type": "Point", "coordinates": [ 124.5931081, 39.8514832 ] } },
{ "type": "Feature", "properties": { "osm_id": "3676126393", "code": 1003, "fclass": "village", "population": 0, "name": "삼개리" }, "geometry": { "type": "Point", "coordinates": [ 124.6229652, 39.8561074 ] } },
{ "type": "Feature", "properties": { "osm_id": "3676128601", "code": 1003, "fclass": "village", "population": 0, "name": "서림리" }, "geometry": { "type": "Point", "coordinates": [ 124.6629742, 39.8930204 ] } },
{ "type": "Feature", "properties": { "osm_id": "3676128725", "code": 1003, "fclass": "village", "population": 0, "name": "련산리" }, "geometry": { "type": "Point", "coordinates": [ 124.6620907, 39.8639251 ] } },
{ "type": "Feature", "properties": { "osm_id": "3676136801", "code": 1003, "fclass": "village", "population": 0, "name": "룡산리" }, "geometry": { "type": "Point", "coordinates": [ 124.6004448, 39.9102804 ] } },
{ "type": "Feature", "properties": { "osm_id": "3676136802", "code": 1003, "fclass": "village", "population": 0, "name": "반곡리" }, "geometry": { "type": "Point", "coordinates": [ 124.5497581, 39.9366932 ] } },
{ "type": "Feature", "properties": { "osm_id": "3676136803", "code": 1003, "fclass": "village", "population": 0, "name": "동성리" }, "geometry": { "type": "Point", "coordinates": [ 124.5655216, 39.9179989 ] } },
{ "type": "Feature", "properties": { "osm_id": "3676142288", "code": 1003, "fclass": "village", "population": 0, "name": "련곡리" }, "geometry": { "type": "Point", "coordinates": [ 124.4956639, 39.9299674 ] } },
{ "type": "Feature", "properties": { "osm_id": "3676143137", "code": 1003, "fclass": "village", "population": 0, "name": "내중리" }, "geometry": { "type": "Point", "coordinates": [ 124.528088, 39.9163063 ] } },
{ "type": "Feature", "properties": { "osm_id": "3676146033", "code": 1003, "fclass": "village", "population": 0, "name": "도봉리" }, "geometry": { "type": "Point", "coordinates": [ 124.478397, 39.9134992 ] } },
{ "type": "Feature", "properties": { "osm_id": "3676150587", "code": 1003, "fclass": "village", "population": 0, "name": "룡북리" }, "geometry": { "type": "Point", "coordinates": [ 124.4452522, 39.8837393 ] } },
{ "type": "Feature", "properties": { "osm_id": "3676152415", "code": 1003, "fclass": "village", "population": 0, "name": "신정리" }, "geometry": { "type": "Point", "coordinates": [ 124.4248841, 39.8795107 ] } },
{ "type": "Feature", "properties": { "osm_id": "3676155452", "code": 1003, "fclass": "village", "population": 0, "name": "중호리" }, "geometry": { "type": "Point", "coordinates": [ 124.5250426, 39.8873419 ] } },
{ "type": "Feature", "properties": { "osm_id": "3676156315", "code": 1003, "fclass": "village", "population": 0, "name": "남압리" }, "geometry": { "type": "Point", "coordinates": [ 124.4859115, 39.8681462 ] } },
{ "type": "Feature", "properties": { "osm_id": "3676159836", "code": 1003, "fclass": "village", "population": 0, "name": "외하리" }, "geometry": { "type": "Point", "coordinates": [ 124.5080496, 39.8846087 ] } },
{ "type": "Feature", "properties": { "osm_id": "3676165771", "code": 1003, "fclass": "village", "population": 0, "name": "반궁리" }, "geometry": { "type": "Point", "coordinates": [ 124.5015664, 39.8480755 ] } },
{ "type": "Feature", "properties": { "osm_id": "3676169981", "code": 1003, "fclass": "village", "population": 0, "name": "주의리" }, "geometry": { "type": "Point", "coordinates": [ 124.5270716, 39.8643004 ] } },
{ "type": "Feature", "properties": { "osm_id": "3676175253", "code": 1003, "fclass": "village", "population": 0, "name": "학소리" }, "geometry": { "type": "Point", "coordinates": [ 124.5442936, 39.8502408 ] } },
{ "type": "Feature", "properties": { "osm_id": "3676177824", "code": 1003, "fclass": "village", "population": 0, "name": "하석리" }, "geometry": { "type": "Point", "coordinates": [ 124.5643829, 39.8624083 ] } },
{ "type": "Feature", "properties": { "osm_id": "3687058297", "code": 1004, "fclass": "hamlet", "population": 0, "name": "북앙부락" }, "geometry": { "type": "Point", "coordinates": [ 124.3812892, 39.9908301 ] } },
{ "type": "Feature", "properties": { "osm_id": "3687058299", "code": 1003, "fclass": "village", "population": 0, "name": "양서리" }, "geometry": { "type": "Point", "coordinates": [ 124.4121698, 40.0106444 ] } },
{ "type": "Feature", "properties": { "osm_id": "3687058300", "code": 1004, "fclass": "hamlet", "population": 0, "name": "팽랑동" }, "geometry": { "type": "Point", "coordinates": [ 124.4103803, 39.9941156 ] } },
{ "type": "Feature", "properties": { "osm_id": "3704615819", "code": 1003, "fclass": "village", "population": 0, "name": "신암리" }, "geometry": { "type": "Point", "coordinates": [ 124.4404734, 40.0098574 ] } },
{ "type": "Feature", "properties": { "osm_id": "3704621816", "code": 1003, "fclass": "village", "population": 0, "name": "산두리" }, "geometry": { "type": "Point", "coordinates": [ 124.4788598, 39.9983268 ] } },
{ "type": "Feature", "properties": { "osm_id": "3704634552", "code": 1003, "fclass": "village", "population": 0, "name": "쌍룡리" }, "geometry": { "type": "Point", "coordinates": [ 124.502192, 39.9895733 ] } },
{ "type": "Feature", "properties": { "osm_id": "3704641224", "code": 1003, "fclass": "village", "population": 0, "name": "학흥리" }, "geometry": { "type": "Point", "coordinates": [ 124.5307982, 39.9756961 ] } },
{ "type": "Feature", "properties": { "osm_id": "3704649826", "code": 1003, "fclass": "village", "population": 0, "name": "인흥리" }, "geometry": { "type": "Point", "coordinates": [ 124.496459, 39.9517564 ] } },
{ "type": "Feature", "properties": { "osm_id": "3704687952", "code": 1003, "fclass": "village", "population": 0, "name": "북중로동자구" }, "geometry": { "type": "Point", "coordinates": [ 124.4381848, 39.9597347 ] } },
{ "type": "Feature", "properties": { "osm_id": "3704718454", "code": 1003, "fclass": "village", "population": 0, "name": "장산리" }, "geometry": { "type": "Point", "coordinates": [ 124.4462771, 39.9406281 ] } },
{ "type": "Feature", "properties": { "osm_id": "3704730180", "code": 1004, "fclass": "hamlet", "population": 0, "name": "추정동" }, "geometry": { "type": "Point", "coordinates": [ 124.4429404, 39.9253116 ] } },
{ "type": "Feature", "properties": { "osm_id": "3704733464", "code": 1003, "fclass": "village", "population": 0, "name": "쌍학리" }, "geometry": { "type": "Point", "coordinates": [ 124.4302791, 39.9423689 ] } },
{ "type": "Feature", "properties": { "osm_id": "3704740491", "code": 1003, "fclass": "village", "population": 0, "name": "룡암포로동자구" }, "geometry": { "type": "Point", "coordinates": [ 124.3745193, 39.9321342 ] } },
{ "type": "Feature", "properties": { "osm_id": "3704752255", "code": 1020, "fclass": "island", "population": 0, "name": "좌초도" }, "geometry": { "type": "Point", "coordinates": [ 124.3535027, 39.9446418 ] } },
{ "type": "Feature", "properties": { "osm_id": "3705474372", "code": 1003, "fclass": "village", "population": 0, "name": "풍천리" }, "geometry": { "type": "Point", "coordinates": [ 124.6600612, 39.7150249 ] } },
{ "type": "Feature", "properties": { "osm_id": "3705484913", "code": 1003, "fclass": "village", "population": 0, "name": "가봉로동자구" }, "geometry": { "type": "Point", "coordinates": [ 124.6666023, 39.8278526 ] } },
{ "type": "Feature", "properties": { "osm_id": "3705484914", "code": 1003, "fclass": "village", "population": 0, "name": "장송로동자구" }, "geometry": { "type": "Point", "coordinates": [ 124.5733665, 39.729689 ] } },
{ "type": "Feature", "properties": { "osm_id": "3705492457", "code": 1003, "fclass": "village", "population": 0, "name": "동천리" }, "geometry": { "type": "Point", "coordinates": [ 124.7014265, 39.7755967 ] } },
{ "type": "Feature", "properties": { "osm_id": "3705492982", "code": 1003, "fclass": "village", "population": 0, "name": "동평리" }, "geometry": { "type": "Point", "coordinates": [ 124.7157594, 39.7814494 ] } },
{ "type": "Feature", "properties": { "osm_id": "3705499456", "code": 1003, "fclass": "village", "population": 0, "name": "월봉리" }, "geometry": { "type": "Point", "coordinates": [ 124.6817347, 39.7577209 ] } },
{ "type": "Feature", "properties": { "osm_id": "3705501649", "code": 1003, "fclass": "village", "population": 0, "name": "령삭리" }, "geometry": { "type": "Point", "coordinates": [ 124.6806051, 39.7343212 ] } },
{ "type": "Feature", "properties": { "osm_id": "3705502311", "code": 1003, "fclass": "village", "population": 0, "name": "명암리" }, "geometry": { "type": "Point", "coordinates": [ 124.6986703, 39.7214923 ] } },
{ "type": "Feature", "properties": { "osm_id": "3705504146", "code": 1003, "fclass": "village", "population": 0, "name": "수부리" }, "geometry": { "type": "Point", "coordinates": [ 124.7294806, 39.7526455 ] } },
{ "type": "Feature", "properties": { "osm_id": "3706139446", "code": 1003, "fclass": "village", "population": 0, "name": "검암리" }, "geometry": { "type": "Point", "coordinates": [ 124.7168015, 39.7121811 ] } },
{ "type": "Feature", "properties": { "osm_id": "3706141171", "code": 1003, "fclass": "village", "population": 0, "name": "동창리" }, "geometry": { "type": "Point", "coordinates": [ 124.7198617, 39.688173 ] } },
{ "type": "Feature", "properties": { "osm_id": "3706142940", "code": 1003, "fclass": "village", "population": 0, "name": "기봉리" }, "geometry": { "type": "Point", "coordinates": [ 124.6306326, 39.6161939 ] } },
{ "type": "Feature", "properties": { "osm_id": "3706143607", "code": 1003, "fclass": "village", "population": 0, "name": "선암리" }, "geometry": { "type": "Point", "coordinates": [ 124.6783972, 39.6389248 ] } },
{ "type": "Feature", "properties": { "osm_id": "3706147717", "code": 1003, "fclass": "village", "population": 0, "name": "보산리" }, "geometry": { "type": "Point", "coordinates": [ 124.6422251, 39.6550095 ] } },
{ "type": "Feature", "properties": { "osm_id": "3706154067", "code": 1003, "fclass": "village", "population": 0, "name": "근천리" }, "geometry": { "type": "Point", "coordinates": [ 124.6712586, 39.6929583 ] } },
{ "type": "Feature", "properties": { "osm_id": "3706154759", "code": 1003, "fclass": "village", "population": 0, "name": "오봉리" }, "geometry": { "type": "Point", "coordinates": [ 124.6304927, 39.7136625 ] } },
{ "type": "Feature", "properties": { "osm_id": "3706156003", "code": 1003, "fclass": "village", "population": 0, "name": "선주리" }, "geometry": { "type": "Point", "coordinates": [ 124.6452592, 39.7575922 ] } },
{ "type": "Feature", "properties": { "osm_id": "3706163876", "code": 1003, "fclass": "village", "population": 0, "name": "금산리" }, "geometry": { "type": "Point", "coordinates": [ 124.608486, 39.7587449 ] } },
{ "type": "Feature", "properties": { "osm_id": "3706167006", "code": 1003, "fclass": "village", "population": 0, "name": "학산리" }, "geometry": { "type": "Point", "coordinates": [ 124.5950818, 39.78962 ] } },
{ "type": "Feature", "properties": { "osm_id": "3706175552", "code": 1003, "fclass": "village", "population": 0, "name": "원세평리" }, "geometry": { "type": "Point", "coordinates": [ 124.665454, 39.8042415 ] } },
{ "type": "Feature", "properties": { "osm_id": "3706175553", "code": 1003, "fclass": "village", "population": 0, "name": "련수리" }, "geometry": { "type": "Point", "coordinates": [ 124.6360507, 39.7939204 ] } },
{ "type": "Feature", "properties": { "osm_id": "3706175554", "code": 1003, "fclass": "village", "population": 0, "name": "가산리" }, "geometry": { "type": "Point", "coordinates": [ 124.6371873, 39.8222434 ] } },
{ "type": "Feature", "properties": { "osm_id": "3706175555", "code": 1003, "fclass": "village", "population": 0, "name": "문봉리" }, "geometry": { "type": "Point", "coordinates": [ 124.6137896, 39.8153172 ] } },
{ "type": "Feature", "properties": { "osm_id": "3706175556", "code": 1003, "fclass": "village", "population": 0, "name": "리화리" }, "geometry": { "type": "Point", "coordinates": [ 124.5694324, 39.7912229 ] } },
{ "type": "Feature", "properties": { "osm_id": "3706175557", "code": 1003, "fclass": "village", "population": 0, "name": "성암리" }, "geometry": { "type": "Point", "coordinates": [ 124.5906987, 39.81574 ] } },
{ "type": "Feature", "properties": { "osm_id": "3706178808", "code": 1003, "fclass": "village", "population": 0, "name": "대화리" }, "geometry": { "type": "Point", "coordinates": [ 124.6096102, 39.4420023 ] } },
{ "type": "Feature", "properties": { "osm_id": "3706301215", "code": 1003, "fclass": "village", "population": 0, "name": "룡송리" }, "geometry": { "type": "Point", "coordinates": [ 124.4229097, 39.9824098 ] } },
{ "type": "Feature", "properties": { "osm_id": "3706322143", "code": 1003, "fclass": "village", "population": 0, "name": "수성리" }, "geometry": { "type": "Point", "coordinates": [ 124.3931361, 39.9463859 ] } },
{ "type": "Feature", "properties": { "osm_id": "3706326731", "code": 1003, "fclass": "village", "population": 0, "name": "서석리" }, "geometry": { "type": "Point", "coordinates": [ 124.3646535, 39.9065933 ] } },
{ "type": "Feature", "properties": { "osm_id": "3706326732", "code": 1003, "fclass": "village", "population": 0, "name": "덕흥리" }, "geometry": { "type": "Point", "coordinates": [ 124.3843348, 39.899247 ] } },
{ "type": "Feature", "properties": { "osm_id": "3706328993", "code": 1003, "fclass": "village", "population": 0, "name": "동하리" }, "geometry": { "type": "Point", "coordinates": [ 124.4917026, 39.9721205 ] } },
{ "type": "Feature", "properties": { "osm_id": "3706329063", "code": 1003, "fclass": "village", "population": 0, "name": "오흥리" }, "geometry": { "type": "Point", "coordinates": [ 124.4414394, 39.9721761 ] } },
{ "type": "Feature", "properties": { "osm_id": "3706573225", "code": 1003, "fclass": "village", "population": 0, "name": "백마로동자구" }, "geometry": { "type": "Point", "coordinates": [ 124.5672687, 40.0742864 ] } },
{ "type": "Feature", "properties": { "osm_id": "3706574984", "code": 1003, "fclass": "village", "population": 0, "name": "량책로동자구" }, "geometry": { "type": "Point", "coordinates": [ 124.6440392, 39.957788 ] } },
{ "type": "Feature", "properties": { "osm_id": "3706587558", "code": 1003, "fclass": "village", "population": 0, "name": "하단리" }, "geometry": { "type": "Point", "coordinates": [ 124.6248388, 40.094636 ] } },
{ "type": "Feature", "properties": { "osm_id": "3706588396", "code": 1050, "fclass": "locality", "population": 0, "name": "상고리" }, "geometry": { "type": "Point", "coordinates": [ 124.7093007, 40.0759256 ] } },
{ "type": "Feature", "properties": { "osm_id": "3706596660", "code": 1003, "fclass": "village", "population": 0, "name": "룡흥리" }, "geometry": { "type": "Point", "coordinates": [ 124.7340379, 40.0040001 ] } },
{ "type": "Feature", "properties": { "osm_id": "3706596925", "code": 1003, "fclass": "village", "population": 0, "name": "동서리" }, "geometry": { "type": "Point", "coordinates": [ 124.6624791, 40.0731922 ] } },
{ "type": "Feature", "properties": { "osm_id": "3706600954", "code": 1003, "fclass": "village", "population": 0, "name": "북삼리" }, "geometry": { "type": "Point", "coordinates": [ 124.7395309, 40.0547463 ] } },
{ "type": "Feature", "properties": { "osm_id": "3706604288", "code": 1003, "fclass": "village", "population": 0, "name": "화삼리" }, "geometry": { "type": "Point", "coordinates": [ 124.7896895, 39.9990564 ] } },
{ "type": "Feature", "properties": { "osm_id": "3706611311", "code": 1003, "fclass": "village", "population": 0, "name": "추봉리" }, "geometry": { "type": "Point", "coordinates": [ 124.7580205, 40.0236082 ] } },
{ "type": "Feature", "properties": { "osm_id": "3706616006", "code": 1003, "fclass": "village", "population": 0, "name": "농건리" }, "geometry": { "type": "Point", "coordinates": [ 124.6401563, 39.9897862 ] } },
{ "type": "Feature", "properties": { "osm_id": "3706617314", "code": 1003, "fclass": "village", "population": 0, "name": "로중리" }, "geometry": { "type": "Point", "coordinates": [ 124.6687353, 40.0478305 ] } },
{ "type": "Feature", "properties": { "osm_id": "3706623425", "code": 1003, "fclass": "village", "population": 0, "name": "당후리" }, "geometry": { "type": "Point", "coordinates": [ 124.629379, 40.040945 ] } },
{ "type": "Feature", "properties": { "osm_id": "3706623761", "code": 1003, "fclass": "village", "population": 0, "name": "송정리" }, "geometry": { "type": "Point", "coordinates": [ 124.5194835, 40.0067955 ] } },
{ "type": "Feature", "properties": { "osm_id": "3706626355", "code": 1003, "fclass": "village", "population": 0, "name": "정산리" }, "geometry": { "type": "Point", "coordinates": [ 124.6654344, 40.0174484 ] } },
{ "type": "Feature", "properties": { "osm_id": "3706640439", "code": 1003, "fclass": "village", "population": 0, "name": "룡유리" }, "geometry": { "type": "Point", "coordinates": [ 124.5722946, 40.0163428 ] } },
{ "type": "Feature", "properties": { "osm_id": "3706641484", "code": 1003, "fclass": "village", "population": 0, "name": "룡계리" }, "geometry": { "type": "Point", "coordinates": [ 124.5481291, 40.0534894 ] } },
{ "type": "Feature", "properties": { "osm_id": "3706643929", "code": 1003, "fclass": "village", "population": 0, "name": "충렬리" }, "geometry": { "type": "Point", "coordinates": [ 124.5433329, 40.0281605 ] } },
{ "type": "Feature", "properties": { "osm_id": "3706658392", "code": 1003, "fclass": "village", "population": 0, "name": "광리" }, "geometry": { "type": "Point", "coordinates": [ 124.6727624, 39.9864861 ] } },
{ "type": "Feature", "properties": { "osm_id": "3706668631", "code": 1003, "fclass": "village", "population": 0, "name": "동상리" }, "geometry": { "type": "Point", "coordinates": [ 124.6195923, 39.9719797 ] } },
{ "type": "Feature", "properties": { "osm_id": "3706669628", "code": 1003, "fclass": "village", "population": 0, "name": "성동리" }, "geometry": { "type": "Point", "coordinates": [ 124.5612864, 39.9688988 ] } },
{ "type": "Feature", "properties": { "osm_id": "3706679193", "code": 1003, "fclass": "village", "population": 0, "name": "대평리" }, "geometry": { "type": "Point", "coordinates": [ 124.5806299, 39.9840438 ] } },
{ "type": "Feature", "properties": { "osm_id": "3706788332", "code": 1002, "fclass": "town", "population": 0, "name": "선천읍" }, "geometry": { "type": "Point", "coordinates": [ 124.9181405, 39.7977909 ] } },
{ "type": "Feature", "properties": { "osm_id": "3706796336", "code": 1002, "fclass": "town", "population": 0, "name": "천마읍" }, "geometry": { "type": "Point", "coordinates": [ 125.0204122, 40.0537707 ] } },
{ "type": "Feature", "properties": { "osm_id": "3706893251", "code": 1002, "fclass": "town", "population": 0, "name": "대관읍" }, "geometry": { "type": "Point", "coordinates": [ 125.2240093, 40.2190861 ] } },
{ "type": "Feature", "properties": { "osm_id": "3706915185", "code": 1002, "fclass": "town", "population": 0, "name": "창성읍" }, "geometry": { "type": "Point", "coordinates": [ 125.2174721, 40.4507273 ] } },
{ "type": "Feature", "properties": { "osm_id": "3706928752", "code": 1002, "fclass": "town", "population": 0, "name": "운전읍" }, "geometry": { "type": "Point", "coordinates": [ 125.5191904, 39.6641919 ] } },
{ "type": "Feature", "properties": { "osm_id": "3706944126", "code": 1002, "fclass": "town", "population": 0, "name": "동창읍" }, "geometry": { "type": "Point", "coordinates": [ 125.5687665, 40.3041599 ] } },
{ "type": "Feature", "properties": { "osm_id": "3706983721", "code": 1002, "fclass": "town", "population": 0, "name": "운산읍" }, "geometry": { "type": "Point", "coordinates": [ 125.9007447, 40.1117755 ] } },
{ "type": "Feature", "properties": { "osm_id": "3706999613", "code": 1002, "fclass": "town", "population": 0, "name": "구장읍" }, "geometry": { "type": "Point", "coordinates": [ 126.0281041, 39.8690975 ] } },
{ "type": "Feature", "properties": { "osm_id": "3706999614", "code": 1002, "fclass": "town", "population": 0, "name": "향산읍" }, "geometry": { "type": "Point", "coordinates": [ 126.1761598, 40.0399608 ] } },
{ "type": "Feature", "properties": { "osm_id": "3707614039", "code": 1003, "fclass": "village", "population": 0, "name": "전산로동자구" }, "geometry": { "type": "Point", "coordinates": [ 125.7748901, 39.5067455 ] } },
{ "type": "Feature", "properties": { "osm_id": "3707655698", "code": 1002, "fclass": "town", "population": 0, "name": "증산읍" }, "geometry": { "type": "Point", "coordinates": [ 125.3716019, 39.1043869 ] } },
{ "type": "Feature", "properties": { "osm_id": "3707703929", "code": 1002, "fclass": "town", "population": 0, "name": "룡강읍" }, "geometry": { "type": "Point", "coordinates": [ 125.4220343, 38.8543975 ] } },
{ "type": "Feature", "properties": { "osm_id": "3707703930", "code": 1002, "fclass": "town", "population": 0, "name": "온천읍" }, "geometry": { "type": "Point", "coordinates": [ 125.2264601, 38.8788561 ] } },
{ "type": "Feature", "properties": { "osm_id": "3707771307", "code": 1002, "fclass": "town", "population": 0, "name": "은산읍" }, "geometry": { "type": "Point", "coordinates": [ 126.0162778, 39.3955685 ] } },
{ "type": "Feature", "properties": { "osm_id": "3707778531", "code": 1002, "fclass": "town", "population": 0, "name": "성천읍" }, "geometry": { "type": "Point", "coordinates": [ 126.2179104, 39.2505947 ] } },
{ "type": "Feature", "properties": { "osm_id": "3707815832", "code": 1002, "fclass": "town", "population": 0, "name": "회창읍" }, "geometry": { "type": "Point", "coordinates": [ 126.4567099, 39.1017138 ] } },
{ "type": "Feature", "properties": { "osm_id": "3707823721", "code": 1002, "fclass": "town", "population": 0, "name": "신양읍" }, "geometry": { "type": "Point", "coordinates": [ 126.4540848, 39.2793403 ] } },
{ "type": "Feature", "properties": { "osm_id": "3707843778", "code": 1002, "fclass": "town", "population": 0, "name": "맹산읍" }, "geometry": { "type": "Point", "coordinates": [ 126.5063211, 39.6560756 ] } },
{ "type": "Feature", "properties": { "osm_id": "3707860761", "code": 1002, "fclass": "town", "population": 0, "name": "녕원읍" }, "geometry": { "type": "Point", "coordinates": [ 126.5432764, 39.8231713 ] } },
{ "type": "Feature", "properties": { "osm_id": "3707865088", "code": 1002, "fclass": "town", "population": 0, "name": "대흥읍" }, "geometry": { "type": "Point", "coordinates": [ 126.9362672, 40.0917173 ] } },
{ "type": "Feature", "properties": { "osm_id": "3708403250", "code": 1002, "fclass": "town", "population": 0, "name": "황주읍" }, "geometry": { "type": "Point", "coordinates": [ 125.7614514, 38.6936286 ] } },
{ "type": "Feature", "properties": { "osm_id": "3708440872", "code": 1002, "fclass": "town", "population": 0, "name": "연탄읍" }, "geometry": { "type": "Point", "coordinates": [ 125.9786046, 38.6247166 ] } },